     2.10           OBSERVATION DATA    M (MIXED)           RINEX VERSION / TYPE
RTKCONV 2.4.3 b33                       20210118 024103 UTC PGM / RUN BY / DATE 
log: E:\UofC\Winter 2021\data.21O                           COMMENT             
format: RINEX                                               COMMENT             
CREF0001                                                    MARKER NAME         
                                                            MARKER NUMBER       
                                                            OBSERVER / AGENCY   
5331K44824          Trimble NetR9       5.03                REC # / TYPE / VERS 
0000000000          Unknown External                        ANT # / TYPE        
 -1641890.0812 -3664879.3462  4939969.4303                  APPROX POSITION XYZ 
        0.0000        0.0000        0.0000                  ANTENNA: DELTA H/E/N
     1     1                                                WAVELENGTH FACT L1/2
     4    C1    L1    C2    L2                              # / TYPES OF OBSERV 
  2021     1     7    23     0    0.0000000     GPS         TIME OF FIRST OBS   
  2021     1     7    23    59   59.0000000     GPS         TIME OF LAST OBS    
                                                            END OF HEADER       
 21  1  7 23  0  0.0000000  0  9G30G 8G28G 5G 9G27G 7G13G14
  20734768.320   108962052.765    20734776.668    84905492.644  
  21393423.328   112423209.857    21393431.379    87602588.973  
  22468699.750   118073846.229                                  
  23865508.500   125413956.788    23865515.316    97725301.554  
  23128303.109   121539963.322    23128310.996    94706600.090  
  22913754.797   120412581.051    22913762.508    93828073.420  
  20468139.273   107560872.078    20468144.402    83813695.684  
  23581932.008   123923946.415                                  
  22062689.398   115940486.253    22062695.734    90343089.393  
 21  1  7 23  0  1.0000000  0  9G30G 8G28G 5G 9G27G 7G13G14
  20734501.813   108960652.113    20734509.898    84904401.229  
  21393404.094   112423107.549    21393411.953    87602509.249  
  22468176.906   118071098.164                                  
  23865812.320   125415559.834    23865819.957    97726550.679  
  23128988.031   121543562.507    23128995.918    94709404.651  
  22914202.336   120414926.037    22914209.051    93829900.680  
  20468231.508   107561355.559    20468236.816    83814072.421  
  23581302.688   123920641.165                                  
  22062149.773   115937647.029    22062155.066    90340877.016  
 21  1  7 23  0  2.0000000  0  9G30G 8G28G 5G 9G27G 7G13G14
  20734235.453   108959251.849    20734243.563    84903310.112  
  21393384.578   112423005.920    21393392.988    87602430.061  
  22467653.641   118068350.338                                  
  23866117.844   125417163.404    23866124.816    97727800.209  
  23129672.945   121547161.940    23129680.359    94712209.403  
  22914647.477   120417271.586    22914655.145    93831728.378  
  20468323.086   107561839.450    20468328.934    83814449.485  
  23580673.594   123917336.205                                  
  22061609.172   115934808.136    22061614.797    90338664.888  
 21  1  7 23  0  3.0000000  0  9G30G 8G28G 5G 9G27G 7G13G14
  20733969.266   108957851.964    20733977.078    84902219.288  
  21393365.031   112422905.026    21393373.668    87602351.442  
  22467130.953   118065602.843                                  
  23866424.734   125418767.522    23866429.496    97729050.167  
  23130357.828   121550761.579    23130365.465    94715014.317  
  22915094.813   120419617.678    22915101.543    93833556.503  
  20468415.578   107562323.758    20468420.758    83814826.865  
  23580044.969   123914031.535                                  
  22061068.969   115931969.545    22061074.648    90336452.999  
 21  1  7 23  0  4.0000000  0  9G30G 8G28G 5G 9G27G 7G13G14
  20733702.727   108956452.458    20733710.625    84901128.771  
  21393346.547   112422804.825    21393354.391    87602273.367  
  22466607.891   118062855.652                                  
  23866731.242   125420372.122    23866735.492    97730300.502  
  23131043.102   121554361.464    23131050.441    94717819.416  
  22915540.211   120421964.337    22915547.547    93835385.069  
  20468507.727   107562808.466    20468512.977    83815204.559  
  23579416.211   123910727.124                                  
  22060528.555   115929131.306    22060534.770    90334241.381  
 21  1  7 23  0  5.0000000  0  9G30G 8G28G 5G 9G27G 7G13G14
  20733436.461   108955053.341    20733444.230    84900038.548  
  21393327.500   112422705.348    21393335.449    87602195.854  
  22466084.883   118060108.762                                  
  23867036.063   125421977.250    23867041.422    97731551.259  
  23131728.344   121557961.623    23131735.809    94720624.732  
  22915987.555   120424311.567    22915995.105    93837214.077  
  20468600.203   107563293.609    20468605.609    83815582.592  
  23578787.523   123907422.995                                  
  22059988.656   115926293.393    22059994.738    90332030.019  
 21  1  7 23  0  6.0000000  0  9G30G 8G28G 5G 9G27G 7G13G14
  20733170.164   108953654.613    20733178.324    84898948.632  
  21393308.453   112422606.559    21393316.828    87602118.875  
  22465562.500   118057362.192                                  
  23867341.164   125423582.960    23867346.773    97732802.466  
  23132413.656   121561562.014    23132420.527    94723430.237  
  22916434.211   120426659.347    22916441.992    93839043.513  
  20468692.484   107563779.176    20468697.633    83815960.955  
  23578158.930   123904119.147                                  
  22059448.172   115923455.821    22059454.832    90329818.931  
 21  1  7 23  0  7.0000000  0  9G30G 8G28G 5G 9G27G 7G13G14
  20732904.078   108952256.300    20732911.895    84897859.037  
  21393290.258   112422508.580    21393298.176    87602042.527  
  22465039.914   118054615.954                                  
  23867644.633   125425189.220    23867652.848    97734054.104  
  23133098.648   121565162.681    23133105.895    94726235.952  
  22916880.742   120429007.755    22916889.059    93840873.445  
  20468785.352   107564265.205    20468790.043    83816339.682  
  23577529.742   123900815.632                                  
  22058908.477   115920618.614    22058914.844    90327608.125  
 21  1  7 23  0  8.0000000  0  9G30G 8G28G 5G 9G27G 7G13G14
  20732638.289   108950858.350    20732646.387    84896769.728  
  21393271.430   112422411.244    21393279.645    87601966.683  
  22464517.789   118051869.992                                  
  23867950.109   125426795.990    23867958.543    97735306.129  
  23133784.023   121568763.548    23133791.727    94729041.823  
  22917328.266   120431356.700    22917335.238    93842703.790  
  20468877.797   107564751.618    20468882.465    83816718.705  
  23576901.367   123897512.363                                  
  22058368.773   115917781.717    22058374.867    90325397.557  
 21  1  7 23  0  9.0000000  0  9G30G 8G28G 5G 9G27G 7G13G14
  20732372.273   108949460.765    20732380.180    84895680.697  
  21393253.242   112422314.603    21393260.996    87601891.376  
  22463995.070   118049124.336                                  
  23868256.773   125428403.242    23868264.063    97736558.520  
  23134468.656   121572364.671    23134476.492    94731847.891  
  22917775.211   120433706.159    22917782.559    93844534.537  
  20468970.539   107565238.449    20468975.340    83817098.049  
  23576272.430   123894209.341                                  
  22057828.844   115914945.133    22057834.461    90323187.235  
 21  1  7 23  0 10.0000000  0  9G30G 8G28G 5G 9G27G 7G13G14
  20732106.320   108948063.619    20732114.590    84894592.010  
  21393234.523   112422218.707    21393242.555    87601816.651  
  22463472.984   118046379.034                                  
  23868565.094   125430011.116    23868570.063    97737811.407  
  23135154.016   121575966.065    23135161.273    94734654.173  
  22918222.461   120436056.240    22918229.766    93846365.769  
  20469063.023   107565725.719    20469068.113    83817477.743  
  23575643.859   123890906.681                                  
  22057289.484   115912108.914    22057295.457    90320977.189  
 21  1  7 23  0 11.0000000  0  9G30G 8G28G 5G 9G27G 7G13G14
  20731840.508   108946666.784    20731848.715    84893503.569  
  21393216.539   112422123.502    21393224.836    87601742.464  
  22462950.547   118043633.982                                  
  23868871.695   125431619.441    23868875.773    97739064.647  
  23135839.703   121579567.677    23135847.203    94737460.621  
  22918669.805   120438406.849    22918676.797    93848197.416  
  20469155.688   107566213.374    20469161.367    83817857.731  
  23575015.859   123887604.233                                  
  22056749.508   115909273.013    22056755.691    90318767.398  
 21  1  7 23  0 12.0000000  0  9G30G 8G28G 5G 9G27G 7G13G14
  20731575.297   108945270.434    20731582.750    84892415.506  
  21393198.625   112422029.057    21393206.789    87601668.871  
  22462427.883   118040889.318                                  
  23869177.227   125433228.406    23869181.941    97740318.394  
  23136525.078   121583169.555    23136532.168    94740267.280  
  22919117.195   120440758.081    22919124.430    93850029.544  
  20469248.352   107566701.516    20469254.152    83818238.103  
  23574387.328   123884302.142                                  
  22056210.297   115906437.471    22056216.242    90316557.881  
 21  1  7 23  0 13.0000000  0  9G30G 8G28G 5G 9G27G 7G13G14
  20731309.453   108943874.426    20731317.098    84891327.704  
  21393180.922   112421935.296    21393189.180    87601595.805  
  22461905.750   118038144.882                                  
  23869482.664   125434837.845    23869488.641    97741572.513  
  23137210.977   121586771.686    23137217.891    94743074.134  
  22919564.297   120443109.843    22919571.789    93851862.079  
  20469341.672   107567190.041    20469346.715    83818618.771  
  23573759.320   123881000.308                                  
  22055670.688   115903602.271    22055676.461    90314348.631  
 21  1  7 23  0 14.0000000  0  9G30G 8G28G 5G 9G27G 7G13G14
  20731043.672   108942478.856    20731051.703    84890240.248  
  21393163.375   112421842.286    21393171.637    87601523.334  
  22461383.594   118035400.823                                  
  23869787.117   125436447.887    23869794.961    97742827.098  
  23137896.641   121590374.043    23137903.535    94745881.164  
  22920012.055   120445462.211    22920019.594    93853695.093  
  20469434.641   107567679.006    20469440.391    83818999.782  
  23573130.617   123877698.783                                  
  22055131.172   115900767.411    22055137.250    90312139.653  
 21  1  7 23  0 15.0000000  0  9G30G 8G28G 5G 9G27G 7G13G14
  20730778.102   108941083.607    20730785.926    84889153.041  
  21393145.492   112421749.949    21393153.750    87601451.379  
  22460861.148   118032657.029                                  
  23870093.266   125438058.407    23870101.973    97744082.044  
  23138581.992   121593976.662    23138589.020    94748688.397  
  22920459.305   120447815.094    22920467.137    93855528.506  
  20469527.320   107568168.383    20469533.113    83819381.122  
  23572502.445   123874397.510                                  
  22054591.781   115897932.859    22054597.832    90309930.911  
 21  1  7 23  0 16.0000000  0  9G30G 8G28G 5G 9G27G 7G13G14
  20730512.758   108939688.749    20730520.781    84888066.136  
  21393128.156   112421658.330    21393136.238    87601379.986  
  22460339.688   118029913.565                                  
  23870401.641   125439669.458    23870407.953    97745337.392  
  23139267.156   121597579.514    23139274.895    94751495.818  
  22920907.344   120450168.521    22920915.141    93857362.345  
  20469620.703   107568658.156    20469626.164    83819762.756  
  23571874.633   123871096.528                                  
  22054052.531   115895098.637    22054058.043    90307722.433  
 21  1  7 23  0 17.0000000  0  9G30G 8G28G 5G 9G27G 7G13G14
  20730247.141   108938294.316    20730255.301    84886979.571  
  21393110.813   112421567.456    21393118.891    87601309.181  
  22459817.461   118027170.417                                  
  23870709.477   125441281.058    23870714.367    97746593.177  
  23139953.031   121601182.648    23139960.121    94754303.451  
  22921355.914   120452522.582    22921363.313    93859196.680  
  20469713.914   107569148.406    20469719.680    83820144.774  
  23571246.188   123867795.899                                  
  22053513.703   115892264.773    22053519.426    90305514.226  
 21  1  7 23  0 18.0000000  0  9G30G 8G28G 5G 9G27G 7G13G14
  20729982.094   108936900.276    20729989.852    84885893.300  
  21393093.938   112421477.272    21393101.430    87601238.906  
  22459295.820   118024427.573                                  
  23871017.109   125442893.229    23871021.039    97747849.413  
  23140639.016   121604785.984    23140646.313    94757111.245  
  22921804.078   120454877.160    22921811.512    93861031.413  
  20469807.852   107569639.043    20469813.000    83820527.088  
  23570618.664   123864495.475                                  
  22052974.133   115889431.257    22052979.586    90303306.299  
 21  1  7 23  0 19.0000000  0  9G30G 8G28G 5G 9G27G 7G13G14
  20729717.016   108935506.572    20729724.352    84884807.299  
  21393076.656   112421387.753    21393084.867    87601169.154  
  22458773.477   118021684.985                                  
  23871323.273   125444505.886    23871328.145    97749106.029  
  23141324.188   121608389.533    23141331.824    94759919.199  
  22922252.133   120457232.289    22922259.484    93862866.579  
  20469901.094   107570130.060    20469906.438    83820909.699  
  23569989.547   123861195.314                                  
  22052435.078   115886598.024    22052440.695    90301098.587  
 21  1  7 23  0 20.0000000  0  9G30G 8G28G 5G 9G27G 7G13G14
  20729451.477   108934113.297    20729459.570    84883721.631  
  21393059.797   112421299.015    21393068.168    87601100.005  
  22458251.625   118018942.798                                  
  23871628.203   125446119.084    23871635.332    97750363.070  
  23142010.141   121611993.393    23142017.719    94762727.402  
  22922700.086   120459588.039    22922707.656    93864702.232  
  20469994.703   107570621.552    20470000.035    83821292.676  
  23569361.922   123857895.500                                  
  22051895.438   115883765.172    22051901.766    90298891.162  
 21  1  7 23  0 21.0000000  0  9G30G 8G28G 5G 9G27G 7G13G14
  20729187.117   108932720.375    20729195.023    84882636.243  
  21393043.047   112421210.940    21393051.188    87601031.373  
  22457729.344   118016200.851                                  
  23871933.844   125447732.827    23871942.605    97751620.534  
  23142695.836   121615597.455    23142703.531    94765535.758  
  22923149.000   120461944.305    22923155.844    93866538.279  
  20470088.422   107571113.455    20470093.996    83821675.975  
  23568733.906   123854595.945                                  
  22051356.445   115880932.645    22051362.559    90296683.995  
 21  1  7 23  0 22.0000000  0  9G30G 8G28G 5G 9G27G 7G13G14
  20728921.719   108931327.886    20728929.809    84881551.185  
  21393026.469   112421123.635    21393034.266    87600963.348  
  22457208.203   118013459.267                                  
  23872241.820   125449347.099    23872249.738    97752878.404  
  23143382.102   121619201.786    23143389.250    94768344.328  
  22923597.484   120464301.166    22923604.711    93868374.794  
  20470182.000   107571605.799    20470186.828    83822059.620  
  23568105.859   123851296.701                                  
  22050817.680   115878100.465    22050823.977    90294477.103  
 21  1  7 23  0 23.0000000  0  9G30G 8G28G 5G 9G27G 7G13G14
  20728656.398   108929935.786    20728664.609    84880466.433  
  21393009.805   112421037.008    21393018.262    87600895.845  
  22456686.602   118010717.977                                  
  23872551.281   125450961.939    23872556.730    97754136.721  
  23144067.484   121622806.346    23144075.531    94771153.076  
  22924045.422   120466658.591    22924053.453    93870211.746  
  20470275.469   107572098.547    20470280.859    83822443.579  
  23567478.031   123847997.736                                  
  22050278.695   115875268.622    22050284.613    90292270.474  
 21  1  7 23  0 24.0000000  0  9G30G 8G28G 5G 9G27G 7G13G14
  20728391.688   108928544.048    20728400.234    84879381.961  
  21392993.703   112420951.125    21393001.617    87600828.926  
  22456164.883   118007976.994                                  
  23872859.820   125452577.292    23872864.117    97755395.433  
  23144754.008   121626411.178    23144761.281    94773962.042  
  22924494.867   120469016.600    22924502.008    93872049.160  
  20470369.477   107572591.723    20470374.930    83822827.877  
  23566850.734   123844699.060                                  
  22049739.758   115872437.117    22049745.680    90290064.113  
 21  1  7 23  0 25.0000000  0  9G30G 8G28G 5G 9G27G 7G13G14
  20728127.109   108927152.714    20728135.168    84878297.798  
  21392977.055   112420865.919    21392985.195    87600762.528  
  22455643.469   118005236.315                                  
  23873167.766   125454193.163    23873171.828    97756654.552  
  23145439.883   121630016.233    23145447.262    94776771.173  
  22924942.836   120471375.124    22924951.023    93873886.970  
  20470463.234   107573085.318    20470468.555    83823212.492  
  23566223.500   123841400.657                                  
  22049200.773   115869605.917    22049206.805    90287857.988  
 21  1  7 23  0 26.0000000  0  9G30G 8G28G 5G 9G27G 7G13G14
  20727862.570   108925761.768    20727870.648    84877213.944  
  21392961.383   112420781.431    21392969.125    87600696.689  
  22455122.406   118002495.957                                  
  23873474.383   125455809.587    23873479.875    97757914.110  
  23146125.953   121633621.553    23146133.254    94779580.508  
  22925392.078   120473734.255    22925399.754    93875725.253  
  20470557.352   107573579.354    20470562.848    83823597.454  
  23565596.266   123838102.553                                  
  22048662.703   115866775.100    22048668.449    90285652.158  
 21  1  7 23  0 27.0000000  0  9G30G 8G28G 5G 9G27G 7G13G14
  20727597.625   108924371.199    20727605.801    84876130.387  
  21392945.453   112420697.646    21392953.270    87600631.409  
  22454600.352   117999755.900                                  
  23873779.906   125457426.537    23873786.965    97759174.076  
  23146812.148   121637227.093    23146819.348    94782390.021  
  22925841.438   120476093.907    22925849.129    93877563.944  
  20470651.109   107574073.789    20470656.582    83823982.734  
  23564968.945   123834804.718                                  
  22048124.039   115863944.586    22048130.309    90283446.564  
 21  1  7 23  0 28.0000000  0  9G30G 8G28G 5G 9G27G 7G13G14
  20727333.109   108922981.005    20727341.129    84875047.121  
  21392930.063   112420614.582    21392937.875    87600566.681  
  22454079.156   117997016.136                                  
  23874086.453   125459043.990    23874094.641    97760434.423  
  23147498.227   121640832.866    23147505.629    94785199.711  
  22926290.406   120478454.161    22926297.918    93879403.101  
  20470745.789   107574568.638    20470750.785    83824368.327  
  23564340.242   123831507.157                                  
  22047585.391   115861114.406    22047591.406    90281241.227  
 21  1  7 23  0 29.0000000  0  9G30G 8G28G 5G 9G27G 7G13G14
  20727068.969   108921591.231    20727076.719    84873964.183  
  21392913.938   112420532.271    21392922.285    87600502.540  
  22453557.516   117994276.703                                  
  23874395.680   125460662.051    23874402.348    97761695.253  
  23148184.539   121644438.928    23148191.559    94788009.632  
  22926739.961   120480814.966    22926747.156    93881242.684  
  20470839.930   107575063.942    20470845.090    83824754.285  
  23563714.070   123828209.909                                  
  22047046.844   115858284.581    22047053.070    90279036.171  
 21  1  7 23  0 30.0000000  0  9G30G 8G28G 5G 9G27G 7G13G14
  20726804.039   108920201.832    20726812.469    84872881.533  
  21392898.344   112420450.663    21392906.750    87600438.951  
  22453036.641   117991537.586                                  
  23874706.180   125462280.607    23874710.672    97762956.460  
  23148870.820   121648045.205    23148877.656    94790819.714  
  22927188.906   120483176.326    22927196.477    93883082.708  
  20470934.523   107575559.637    20470939.563    83825140.540  
  23563086.508   123824912.953                                  
  22046508.305   115855455.088    22046514.738    90276831.373  
 21  1  7 23  0 31.0000000  0  9G30G 8G28G 5G 9G27G 7G13G14
  20726540.195   108918812.855    20726547.754    84871799.212  
  21392883.039   112420369.788    21392891.008    87600375.933  
  22452516.320   117988798.791                                  
  23875014.266   125463899.745    23875019.043    97764218.131  
  23149557.047   121651651.746    23149564.660    94793630.006  
  22927638.016   120485538.272    22927646.422    93884923.184  
  20471028.781   107576055.791    20471034.418    83825527.153  
  23562459.273   123821616.248                                  
  22045969.461   115852625.944    22045976.059    90274626.844  
 21  1  7 23  0 32.0000000  0  9G30G 8G28G 5G 9G27G 7G13G14
  20726275.836   108917424.249    20726283.844    84870717.179  
  21392867.797   112420289.600    21392875.930    87600313.453  
  22451994.438   117986060.301                                  
  23875322.344   125465519.358    23875327.496    97765480.170  
  23150243.531   121655258.533    23150250.730    94796440.492  
  22928088.227   120487900.782    22928096.223    93886764.102  
  20471123.352   107576552.360    20471128.555    83825914.092  
  23561831.344   123818319.872                                  
  22045431.992   115849797.144    22045437.809    90272422.589  
 21  1  7 23  0 33.0000000  0  9G30G 8G28G 5G 9G27G 7G13G14
  20726011.875   108916036.008    20726019.824    84869635.439  
  21392852.391   112420210.113    21392860.574    87600251.509  
  22451474.047   117983322.093                                  
  23875628.961   125467139.512    23875636.223    97766742.632  
  23150930.219   121658865.543    23150937.219    94799251.150  
  22928537.773   120490263.852    22928545.430    93888605.457  
  20471218.078   107577049.334    20471223.316    83826301.339  
  23561204.664   123815023.778                                  
  22044893.430   115846968.676    22044899.320    90270218.588  
 21  1  7 23  0 34.0000000  0  9G30G 8G28G 5G 9G27G 7G13G14
  20725747.672   108914648.177    20725755.309    84868554.006  
  21392837.625   112420131.367    21392845.688    87600190.148  
  22450952.680   117980584.220                                  
  23875935.977   125468760.232    23875945.004    97768005.529  
  23151616.734   121662472.802    23151623.453    94802062.004  
  22928987.102   120492627.481    22928994.984    93890447.248  
  20471312.594   107577546.745    20471317.723    83826688.928  
  23560577.102   123811727.965                                  
  22044355.336   115844140.521    22044360.980    90268014.831  
 21  1  7 23  0 35.0000000  0  9G30G 8G28G 5G 9G27G 7G13G14
  20725483.742   108913260.711    20725491.371    84867472.866  
  21392822.852   112420053.310    21392830.824    87600129.327  
  22450431.195   117977846.648                                  
  23876244.609   125470381.492    23876253.234    97769268.842  
  23152302.586   121666080.274    23152310.270    94804873.019  
  22929437.156   120494991.656    22929445.016    93892289.457  
  20471407.094   107578044.558    20471412.543    83827076.842  
  23559950.383   123808432.432                                  
  22043817.016   115841312.708    22043823.328    90265811.341  
 21  1  7 23  0 36.0000000  0  9G30G 8G28G 5G 9G27G 7G13G14
  20725219.039   108911873.666    20725227.676    84866392.048  
  21392808.031   112419975.978    21392815.918    87600069.073  
  22449910.188   117975109.392                                  
  23876554.484   125472003.251    23876560.961    97770532.538  
  23152988.656   121669688.009    23152996.305    94807684.237  
  22929887.477   120497356.408    22929894.684    93894132.124  
  20471502.039   107578542.793    20471507.176    83827465.077  
  23559322.367   123805137.171                                  
  22043279.172   115838485.224    22043285.121    90263608.106  
 21  1  7 23  0 37.0000000  0  9G30G 8G28G 5G 9G27G 7G13G14
  20724955.719   108910487.001    20724963.996    84865311.538  
  21392793.430   112419899.348    21392801.961    87600009.357  
  22449389.445   117972372.427                                  
  23876865.055   125473625.551    23876869.953    97771796.668  
  23153675.727   121673296.022    23153683.594    94810495.676  
  22930337.438   120499721.740    22930344.773    93895975.235  
  20471597.211   107579041.462    20471602.234    83827853.649  
  23558695.750   123801842.250                                  
  22042741.484   115835658.108    22042746.957    90261405.158  
 21  1  7 23  0 38.0000000  0  9G30G 8G28G 5G 9G27G 7G13G14
  20724691.781   108909100.689    20724700.023    84864231.288  
  21392779.000   112419823.425    21392787.105    87599950.193  
  22448868.813   117969635.776                                  
  23877174.539   125475248.371    23877178.566    97773061.206  
  23154361.758   121676904.240    23154369.617    94813307.269  
  22930787.813   120502087.580    22930794.797    93897818.747  
  20471691.977   107579540.510    20471696.902    83828242.514  
  23558068.977   123798547.531                                  
  22042203.117   115832831.285    22042209.375    90259202.441  
 21  1  7 23  0 39.0000000  0  9G30G 8G28G 5G 9G27G 7G13G14
  20724428.164   108907714.794    20724436.344    84863151.375  
  21392764.555   112419748.206    21392772.820    87599891.589  
  22448348.031   117966899.436                                  
  23877482.000   125476871.769    23877487.414    97774326.197  
  23155048.867   121680512.661    23155056.680    94816119.025  
  22931238.016   120504454.016    22931245.434    93899662.726  
  20471786.844   107580040.037    20471792.320    83828631.757  
  23557442.125   123795253.129                                  
  22041665.695   115830004.803    22041671.133    90256999.989  
 21  1  7 23  0 40.0000000  0  9G30G 8G28G 5G 9G27G 7G13G14
  20724164.461   108906329.258    20724172.809    84862071.736  
  21392750.156   112419673.687    21392758.816    87599833.520  
  22447827.141   117964163.404                                  
  23877789.031   125478495.640    23877796.770    97775591.557  
  23155736.063   121684121.377    23155743.473    94818931.013  
  22931689.219   120506820.985    22931695.887    93901507.113  
  20471881.828   107580539.922    20471887.227    83829021.276  
  23556815.242   123791959.000                                  
  22041127.594   115827178.659    22041133.984    90254797.796  
 21  1  7 23  0 41.0000000  0  9G30G 8G28G 5G 9G27G 7G13G14
  20723900.883   108904944.159    20723909.098    84860992.437  
  21392736.391   112419599.918    21392744.566    87599776.038  
  22447306.336   117961427.700                                  
  23878098.055   125480120.109    23878105.738    97776857.376  
  23156422.664   121687730.345    23156430.621    94821743.189  
  22932138.891   120509188.589    22932146.043    93903352.004  
  20471977.125   107581040.290    20471982.355    83829411.179  
  23556188.195   123788665.199                                  
  22040590.266   115824352.892    22040596.191    90252595.901  
 21  1  7 23  0 42.0000000  0  9G30G 8G28G 5G 9G27G 7G13G14
  20723637.766   108903559.425    20723645.574    84859913.425  
  21392722.289   112419526.849    21392730.617    87599719.101  
  22446786.125   117958692.302                                  
  23878407.945   125481745.110    23878414.711    97778123.601  
  23157109.453   121691339.536    23157116.695    94824555.545  
  22932589.742   120511556.696    22932596.926    93905197.278  
  20472072.852   107581541.059    20472077.996    83829801.385  
  23555561.125   123785371.682                                  
  22040052.680   115821527.452    22040058.445    90250394.264  
 21  1  7 23  0 43.0000000  0  9G30G 8G28G 5G 9G27G 7G13G14
  20723374.305   108902175.071    20723382.059    84858834.708  
  21392708.609   112419454.488    21392716.957    87599662.715  
  22446266.250   117955957.200                                  
  23878719.523   125483370.585    23878724.230    97779390.200  
  23157796.438   121694948.950    23157803.688    94827368.076  
  22933040.313   120513925.365    22933047.918    93907042.993  
  20472168.148   107582042.246    20472173.383    83830191.922  
  23554934.531   123782078.418                                  
  22039514.242   115818702.308    22039520.465    90248192.852  
 21  1  7 23  0 44.0000000  0  9G30G 8G28G 5G 9G27G 7G13G14
  20723111.164   108900791.132    20723119.137    84857756.309  
  21392695.500   112419382.848    21392703.430    87599606.892  
  22445745.305   117953222.432                                  
  23879029.586   125484996.649    23879033.730    97780657.264  
  23158483.422   121698558.638    23158490.703    94830180.816  
  22933490.625   120516294.634    22933498.730    93908889.179  
  20472263.523   107582543.870    20472268.438    83830582.800  
  23554308.367   123778785.468                                  
  22038977.156   115815877.552    22038983.246    90245991.746  
 21  1  7 23  0 45.0000000  0  9G30G 8G28G 5G 9G27G 7G13G14
  20722847.336   108899407.581    20722855.359    84856678.220  
  21392681.664   112419311.924    21392689.504    87599551.625  
  22445225.000   117950487.972                                  
  23879339.188   125486623.197    23879343.324    97781924.711  
  23159170.258   121702168.593    23159177.156    94832993.766  
  22933942.188   120518664.450    22933949.129    93910735.787  
  20472359.203   107583045.905    20472364.172    83830973.995  
  23553682.063   123775492.847                                  
  22038439.898   115813053.109    22038445.441    90243790.880  
 21  1  7 23  0 46.0000000  0  9G30G 8G28G 5G 9G27G 7G13G14
  20722584.281   108898024.408    20722592.441    84855600.428  
  21392667.898   112419241.727    21392676.230    87599496.922  
  22444704.578   117947753.832                                  
  23879646.523   125488250.363    23879652.742    97783192.642  
  23159856.930   121705778.723    23159864.563    94835806.859  
  22934393.258   120521034.839    22934400.160    93912582.840  
  20472454.367   107583548.376    20472459.895    83831365.524  
  23553055.391   123772200.462                                  
  22037902.148   115810228.999    22037907.887    90241590.279  
 21  1  7 23  0 47.0000000  0  9G30G 8G28G 5G 9G27G 7G13G14
  20722321.141   108896641.642    20722328.844    84854522.943  
  21392655.023   112419172.213    21392663.121    87599442.757  
  22444184.789   117945019.972                                  
  23879954.891   125489877.975    23879962.617    97784460.914  
  23160543.773   121709389.119    23160551.516    94838620.149  
  22934844.297   120523405.783    22934851.480    93914430.335  
  20472550.117   107584051.255    20472555.508    83831757.375  
  23552428.930   123768908.374                                  
  22037365.070   115807405.251    22037371.023    90239389.958  
 21  1  7 23  0 48.0000000  0  9G30G 8G28G 5G 9G27G 7G13G14
  20722057.781   108895259.185    20722066.020    84853445.708  
  21392641.586   112419103.396    21392649.578    87599389.135  
  22443664.289   117942286.410                                  
  23880264.500   125491506.096    23880272.547    97785729.576  
  23161230.898   121712999.739    23161238.676    94841433.623  
  22935295.844   120525777.248    22935302.938    93916278.231  
  20472645.984   107584554.503    20472651.383    83832149.522  
  23551802.563   123765616.550                                  
  22036827.836   115804581.784    22036833.625    90237189.849  
 21  1  7 23  0 49.0000000  0  9G30G 8G28G 5G 9G27G 7G13G14
  20721794.781   108893877.239    20721802.977    84852368.868  
  21392629.188   112419035.388    21392637.047    87599336.144  
  22443144.133   117939553.230                                  
  23880575.648   125493134.881    23880582.750    97786998.752  
  23161917.961   121716610.702    23161925.766    94844247.359  
  22935747.375   120528149.329    22935754.520    93918126.607  
  20472741.922   107585058.276    20472746.973    83832542.070  
  23551176.398   123762325.081                                  
  22036290.781   115801758.748    22036296.664    90234990.080  
 21  1  7 23  0 50.0000000  0  9G30G 8G28G 5G 9G27G 7G13G14
  20721531.898   108892495.615    20721539.637    84851292.274  
  21392615.938   112418968.015    21392624.387    87599283.639  
  22442624.320   117936820.318                                  
  23880888.000   125494764.083    23880892.941    97788268.248  
  23162605.578   121720221.813    23162612.914    94847061.212  
  22936198.797   120530521.954    22936205.816    93919975.403  
  20472837.797   107585562.402    20472843.262    83832934.895  
  23550549.844   123759033.859                                  
  22035753.180   115798935.942    22035758.898    90232790.494  
 21  1  7 23  0 51.0000000  0  9G30G 8G28G 5G 9G27G 7G13G14
  20721269.414   108891114.410    20721276.922    84850216.013  
  21392603.875   112418901.381    21392611.445    87599231.719  
  22442104.672   117934087.717                                  
  23881198.633   125496393.889    23881202.832    97789538.226  
  23163292.711   121723833.189    23163299.930    94849875.267  
  22936650.414   120532895.153    22936657.496    93921824.648  
  20472933.781   107586067.013    20472939.289    83833328.104  
  23549924.188   123755742.919                                  
  22035216.492   115796113.562    22035222.234    90230591.235  
 21  1  7 23  0 52.0000000  0  9G30G 8G28G 5G 9G27G 7G13G14
  20721006.336   108889733.599    20721014.242    84849140.054  
  21392591.047   112418835.461    21392598.848    87599180.356  
  22441584.383   117931355.445                                  
  23881508.148   125498024.214    23881513.070    97790808.612  
  23163979.875   121727444.823    23163987.355    94852689.526  
  22937101.227   120535268.916    22937109.320    93923674.333  
  20473029.828   107586572.010    20473035.246    83833721.594  
  23549297.617   123752452.310                                  
  22034678.742   115793291.487    22034685.246    90228392.221  
 21  1  7 23  0 53.0000000  0  9G30G 8G28G 5G 9G27G 7G13G14
  20720743.711   108888353.140    20720752.105    84848064.368  
  21392578.352   112418770.206    21392586.523    87599129.509  
  22441064.930   117928623.467                                  
  23881815.844   125499655.051    23881823.559    97792079.406  
  23164667.234   121731056.676    23164674.762    94855503.958  
  22937554.227   120537643.201    22937561.449    93925524.426  
  20473126.195   107587077.398    20473131.496    83834115.393  
  23548670.891   123749161.948                                  
  22034142.500   115790469.748    22034148.105    90226193.469  
 21  1  7 23  0 54.0000000  0  9G30G 8G28G 5G 9G27G 7G13G14
  20720481.211   108886973.059    20720488.977    84846988.986  
  21392566.453   112418705.681    21392574.238    87599079.229  
  22440545.195   117925891.796                                  
  23882125.148   125501286.416    23882133.887    97793350.606  
  23165354.656   121734668.759    23165361.867    94858318.568  
  22938005.391   120540018.033    22938013.328    93927374.947  
  20473222.430   107587583.223    20473227.699    83834509.541  
  23548045.906   123745871.864                                  
  22033606.250   115787648.334    22033611.246    90223994.969  
 21  1  7 23  0 55.0000000  0  9G30G 8G28G 5G 9G27G 7G13G14
  20720218.500   108885593.407    20720226.609    84845913.926  
  21392554.242   112418641.931    21392562.184    87599029.553  
  22440024.375   117923160.430                                  
  23882437.078   125502918.357    23882443.785    97794622.239  
  23166041.953   121738281.119    23166049.402    94861133.394  
  22938457.758   120542393.482    22938465.367    93929225.939  
  20473318.727   107588089.476    20473324.445    83834904.026  
  23547419.031   123742582.095                                  
  22033068.906   115784827.262    22033074.414    90221796.728  
 21  1  7 23  0 56.0000000  0  9G30G 8G28G 5G 9G27G 7G13G14
  20719955.914   108884214.131    20719963.859    84844839.173  
  21392541.891   112418578.853    21392550.129    87598980.401  
  22439505.547   117920429.383                                  
  23882749.336   125504550.788    23882754.504    97795894.254  
  23166729.320   121741893.683    23166736.527    94863948.379  
  22938910.180   120544769.449    22938917.293    93931077.338  
  20473415.109   107588596.145    20473420.336    83835298.833  
  23546793.367   123739292.617                                  
  22032531.781   115782006.539    22032538.066    90219598.762  
 21  1  7 23  0 57.0000000  0  9G30G 8G28G 5G 9G27G 7G13G14
  20719693.422   108882835.254    20719701.602    84843764.719  
  21392530.055   112418516.498    21392537.965    87598931.810  
  22438985.906   117917698.669                                  
  23883062.266   125506183.767    23883065.520    97797166.703  
  23167416.844   121745506.518    23167423.965    94866763.579  
  22939361.797   120547146.029    22939368.910    93932929.220  
  20473511.641   107589103.254    20473517.008    83835693.991  
  23546167.375   123736003.409                                  
  22031995.195   115779186.129    22032000.883    90217401.043  
 21  1  7 23  0 58.0000000  0  9G30G 8G28G 5G 9G27G 7G13G14
  20719431.297   108881456.744    20719439.199    84842690.555  
  21392518.727   112418454.870    21392526.195    87598883.790  
  22438465.797   117914968.235                                  
  23883372.992   125507817.264    23883377.023    97798439.561  
  23168104.336   121749119.558    23168111.797    94869578.934  
  22939814.766   120549523.153    22939821.773    93934781.530  
  20473608.539   107589610.776    20473613.359    83836089.461  
  23545541.570   123732714.507                                  
  22031458.258   115776366.072    22031464.223    90215203.597  
 21  1  7 23  0 59.0000000  0  9G30G 8G28G 5G 9G27G 7G13G14
  20719169.219   108880078.650    20719177.176    84841616.719  
  21392506.750   112418393.969    21392514.820    87598836.337  
  22437946.875   117912238.129                                  
  23883681.422   125509451.321    23883688.105    97799712.854  
  23168791.164   121752732.864    23168798.852    94872394.490  
  22940266.961   120551900.831    22940274.273    93936634.264  
  20473704.883   107590118.738    20473710.113    83836485.275  
  23544915.617   123729425.900                                  
  22030921.883   115773546.372    22030928.184    90213006.429  
 21  1  7 23  1  0.0000000  0  9G30G 8G28G 5G 9G27G 7G13G14
  20718907.125   108878700.952    20718915.320    84840543.188  
  21392495.219   112418333.785    21392503.379    87598789.434  
  22437426.844   117909508.343                                  
  23883990.031   125511085.907    23883999.133    97800986.561  
  23169479.414   121756346.406    23169486.773    94875210.235  
  22940719.133   120554279.068    22940726.652    93938487.432  
  20473801.797   107590627.132    20473807.109    83836881.430  
  23544289.188   123726137.589                                  
  22030385.234   115770727.014    22030391.465    90210809.527  
 21  1  7 23  1  1.0000000  0  9G30G 8G28G 5G 9G27G 7G13G14
  20718644.742   108877323.603    20718652.898    84839469.930  
  21392484.477   112418274.254    21392492.449    87598743.050  
  22436907.266   117906778.850                                  
  23884300.805   125512721.026    23884309.934    97802260.671  
  23170166.641   121759960.217    23170174.242    94878026.192  
  22941171.953   120556657.844    22941179.730    93940341.029  
  20473898.344   107591135.913    20473904.012    83837277.882  
  23543663.867   123722849.517                                  
  22029848.344   115767907.959    22029855.219    90208612.861  
 21  1  7 23  1  2.0000000  0  9G30G 8G28G 5G 9G27G 7G13G14
  20718382.945   108875946.649    20718390.961    84838396.975  
  21392472.992   112418215.463    21392480.313    87598697.241  
  22436388.625   117904049.634                                  
  23884614.078   125514356.650    23884620.621    97803535.177  
  23170854.789   121763574.217    23170862.531    94880842.297  
  22941624.750   120559037.214    22941631.727    93942195.079  
  20473995.484   107591645.117    20474000.637    83837674.666  
  23543038.461   123719561.776                                  
  22029312.430   115765089.239    22029318.234    90206416.452  
 21  1  7 23  1  3.0000000  0  9G30G 8G28G 5G 9G27G 7G13G14
  20718121.008   108874570.092    20718128.727    84837324.335  
  21392462.031   112418157.390    21392469.977    87598651.988  
  22435869.133   117901320.765                                  
  23884927.297   125515992.821    23884931.879    97804810.110  
  23171542.906   121767188.468    23171550.188    94883658.597  
  22942077.711   120561417.112    22942085.000    93944049.545  
  20474092.125   107592154.743    20474097.891    83838071.771  
  23542412.234   123716274.307                                  
  22028775.844   115762270.888    22028782.191    90204220.337  
 21  1  7 23  1  4.0000000  0  9G30G 8G28G 5G 9G27G 7G13G14
  20717859.219   108873193.974    20717867.098    84836252.033  
  21392450.797   112418100.044    21392459.098    87598607.306  
  22435350.023   117898592.257                                  
  23885240.031   125517629.530    23885243.641    97806085.470  
  23172230.477   121770803.003    23172237.723    94886475.117  
  22942530.734   120563797.612    22942537.348    93945904.477  
  20474189.547   107592664.828    20474194.922    83838469.237  
  23541787.570   123712987.189                                  
  22028240.359   115759452.872    22028245.707    90202024.484  
 21  1  7 23  1  5.0000000  0  9G30G 8G28G 5G 9G27G 7G13G14
  20717597.477   108871818.212    20717604.863    84835180.012  
  21392440.203   112418043.391    21392448.414    87598563.158  
  22434830.508   117895864.022                                  
  23885549.445   125519266.775    23885555.406    97807361.253  
  23172918.539   121774417.760    23172925.852    94889291.806  
  22942983.961   120566178.668    22942990.277    93947759.848  
  20474286.695   107593175.322    20474291.441    83838867.030  
  23541162.102   123709700.295                                  
  22027703.742   115756635.205    22027709.582    90199828.899  
 21  1  7 23  1  6.0000000  0  9G30G 8G28G 5G 9G27G 7G13G14
  20717335.313   108870442.823    20717343.211    84834108.284  
  21392429.484   112417987.445    21392437.660    87598519.564  
  22434311.273   117893136.073                                  
  23885858.930   125520904.515    23885867.441    97808637.422  
  23173606.789   121778032.731    23173614.160    94892108.659  
  22943436.898   120568560.248    22943443.945    93949615.624  
  20474383.813   107593686.204    20474388.582    83839265.115  
  23540536.008   123706413.698                                  
  22027167.641   115753817.830    22027173.898    90197633.542  
 21  1  7 23  1  7.0000000  0  9G30G 8G28G 5G 9G27G 7G13G14
  20717074.352   108869067.840    20717082.023    84833036.864  
  21392418.938   112417932.234    21392427.234    87598476.538  
  22433792.430   117890408.442                                  
  23886169.586   125522542.867    23886179.188    97809914.047  
  23174294.508   121781647.972    23174301.508    94894925.726  
  22943890.422   120570942.406    22943897.859    93951471.851  
  20474481.016   107594197.530    20474486.410    83839663.553  
  23539910.211   123703127.382                                  
  22026631.563   115751000.816    22026637.547    90195438.470  
 21  1  7 23  1  8.0000000  0  9G30G 8G28G 5G 9G27G 7G13G14
  20716812.672   108867693.247    20716820.617    84831965.753  
  21392408.641   112417877.718    21392416.508    87598434.061  
  22433273.188   117887681.147                                  
  23886481.680   125524181.637    23886490.094    97811191.001  
  23174982.664   121785263.454    23174989.750    94897742.985  
  22944343.742   120573325.132    22944351.000    93953328.521  
  20474578.508   107594709.281    20474583.844    83840062.322  
  23539285.539   123699841.398                                  
  22026095.141   115748184.139    22026101.633    90193243.660  
 21  1  7 23  1  9.0000000  0  9G30G 8G28G 5G 9G27G 7G13G14
  20716550.664   108866319.067    20716558.922    84830894.965  
  21392398.195   112417823.935    21392406.184    87598392.152  
  22432755.086   117884954.179                                  
  23886796.625   125525821.026    23886801.641    97812468.432  
  23175670.352   121788879.164    23175678.059    94900560.423  
  22944797.406   120575708.431    22944804.363    93955185.637  
  20474676.141   107595221.469    20474681.234    83840461.429  
  23538660.039   123696555.664                                  
  22025559.641   115745367.817    22025565.512    90191049.124  
 21  1  7 23  1 10.0000000  0  9G30G 8G28G 5G 9G27G 7G13G14
  20716289.391   108864945.259    20716297.652    84829824.464  
  21392388.484   112417770.852    21392396.441    87598350.790  
  22432235.563   117882227.502                                  
  23887109.570   125527460.906    23887113.488    97813746.255  
  23176358.156   121792495.110    23176365.789    94903378.051  
  22945250.492   120578092.252    22945257.887    93957043.159  
  20474773.406   107595734.058    20474778.613    83840860.846  
  23538034.789   123693270.234                                  
  22025023.531   115742551.833    22025029.816    90188854.849  
 21  1  7 23  1 11.0000000  0  9G30G 8G28G 5G 9G27G 7G13G14
  20716028.086   108863571.840    20716035.930    84828754.268  
  21392378.336   112417718.494    21392386.270    87598309.994  
  22431716.953   117879501.141                                  
  23887421.555   125529101.339    23887426.121    97815024.518  
  23177046.883   121796111.321    23177054.320    94906195.880  
  22945705.438   120580476.673    22945712.016    93958901.149  
  20474871.305   107596247.097    20474876.852    83841260.620  
  23537409.656   123689985.113                                  
  22024487.852   115739736.178    22024494.027    90186660.837  
 21  1  7 23  1 12.0000000  0  9G30G 8G28G 5G 9G27G 7G13G14
  20715766.766   108862198.837    20715774.984    84827684.394  
  21392368.758   112417666.871    21392376.727    87598269.767  
  22431198.664   117876775.102                                  
  23887731.984   125530742.295    23887738.438    97816303.205  
  23177734.461   121799727.771    23177741.586    94909013.891  
  22946158.844   120582861.660    22946166.090    93960759.586  
  20474968.898   107596760.558    20474973.957    83841660.715  
  23536785.055   123686700.303                                  
  22023951.914   115736920.882    22023957.813    90184467.095  
 21  1  7 23  1 13.0000000  0  9G30G 8G28G 5G 9G27G 7G13G14
  20715505.602   108860826.186    20715513.969    84826614.791  
  21392358.875   112417615.951    21392366.770    87598230.086  
  22430679.359   117874049.350                                  
  23888042.281   125532383.780    23888051.480    97817582.293  
  23178422.984   121803344.414    23178430.750    94911832.058  
  22946612.734   120585247.179    22946620.043    93962618.432  
  20475066.641   107597274.417    20475071.633    83842061.127  
  23536159.742   123683415.737                                  
  22023416.352   115734105.897    22023421.934    90182273.602  
 21  1  7 23  1 14.0000000  0  9G30G 8G28G 5G 9G27G 7G13G14
  20715244.305   108859453.936    20715252.219    84825545.508  
  21392349.492   112417565.760    21392357.348    87598190.978  
  22430160.398   117871323.918                                  
  23888354.930   125534025.838    23888363.953    97818861.812  
  23179111.211   121806961.324    23179118.340    94914650.428  
  22947066.750   120587633.256    22947073.434    93964477.709  
  20475164.570   107597788.698    20475170.105    83842461.866  
  23535534.680   123680131.475                                  
  22022880.500   115731291.271    22022887.160    90180080.390  
 21  1  7 23  1 15.0000000  0  9G30G 8G28G 5G 9G27G 7G13G14
  20714983.078   108858082.076    20714991.504    84824476.528  
  21392339.727   112417516.264    21392347.402    87598152.412  
  22429642.133   117868598.768                                  
  23888669.727   125535668.358    23888676.609    97820141.683  
  23179799.633   121810578.453    23179806.945    94917468.964  
  22947520.922   120590019.892    22947527.660    93966337.426  
  20475262.234   107598303.392    20475267.809    83842862.931  
  23534909.438   123676847.487                                  
  22022345.414   115728476.961    22022351.504    90177887.420  
 21  1  7 23  1 16.0000000  0  9G30G 8G28G 5G 9G27G 7G13G14
  20714722.461   108856710.636    20714730.621    84823407.872  
  21392330.703   112417467.532    21392338.727    87598114.439  
  22429123.336   117865873.982                                  
  23888984.453   125537311.477    23888989.305    97821422.029  
  23180488.313   121814195.910    23180495.254    94920287.757  
  22947975.227   120592407.144    22947982.020    93968197.626  
  20475360.547   107598818.566    20475365.684    83843264.364  
  23534285.195   123673563.864                                  
  22021809.750   115725663.027    22021815.844    90175694.746  
 21  1  7 23  1 17.0000000  0  9G30G 8G28G 5G 9G27G 7G13G14
  20714461.172   108855339.575    20714469.398    84822339.513  
  21392321.313   112417419.446    21392329.262    87598076.970  
  22428605.164   117863149.497                                  
  23889297.844   125538955.080    23889301.859    97822702.756  
  23181176.828   121817813.538    23181184.238    94923106.686  
  22948429.430   120594794.925    22948436.070    93970058.233  
  20475458.453   107599334.133    20475463.977    83843666.101  
  23533660.297   123670280.481                                  
  22021274.195   115722849.413    22021280.883    90173502.325  
 21  1  7 23  1 18.0000000  0  9G30G 8G28G 5G 9G27G 7G13G14
  20714200.438   108853968.902    20714208.910    84821271.454  
  21392312.648   112417372.091    21392320.137    87598040.069  
  22428086.391   117860425.325                                  
  23889609.422   125540599.224    23889615.195    97823983.924  
  23181864.805   121821431.406    23181872.934    94925925.800  
  22948883.844   120597183.260    22948890.672    93971919.268  
  20475556.703   107599850.118    20475561.949    83844068.167  
  23533034.867   123666997.412                                  
  22020738.945   115720036.137    22020744.801    90171310.160  
 21  1  7 23  1 19.0000000  0  9G30G 8G28G 5G 9G27G 7G13G14
  20713939.969   108852598.604    20713947.914    84820203.689  
  21392303.625   112417325.440    21392311.164    87598003.716  
  22427568.938   117857701.447                                  
  23889920.234   125542243.904    23889928.000    97825265.507  
  23182553.586   121825049.546    23182561.281    94928745.134  
  22949338.039   120599572.137    22949344.906    93973780.730  
  20475654.977   107600366.525    20475660.031    83844470.565  
  23532410.602   123663714.585                                  
  22020203.844   115717223.204    22020209.648    90169118.264  
 21  1  7 23  1 20.0000000  0  9G30G 8G28G 5G 9G27G 7G13G14
  20713679.023   108851228.701    20713687.180    84819136.233  
  21392295.070   112417279.509    21392302.805    87597967.925  
  22427050.242   117854977.881                                  
  23890231.789   125543889.115    23890240.742    97826547.491  
  23183241.969   121828667.887    23183249.660    94931564.619  
  22949792.945   120601961.555    22949799.898    93975642.613  
  20475753.289   107600883.337    20475758.758    83844873.279  
  23531785.500   123660432.084                                  
  22019668.688   115714410.612    22019674.605    90166926.634  
 21  1  7 23  1 21.0000000  0  9G30G 8G28G 5G 9G27G 7G13G14
  20713418.305   108849859.181    20713426.652    84818069.081  
  21392286.227   112417234.269    21392294.160    87597932.671  
  22426532.258   117852254.643                                  
  23890545.844   125545534.818    23890553.434    97827829.850  
  23183930.898   121832286.477    23183938.117    94934384.304  
  22950247.617   120604351.581    22950254.883    93977504.972  
  20475851.906   107601400.581    20475857.051    83845276.322  
  23531161.484   123657149.859                                  
  22019133.344   115711598.332    22019139.797    90164735.248  
 21  1  7 23  1 22.0000000  0  9G30G 8G28G 5G 9G27G 7G13G14
  20713157.883   108848490.069    20713166.176    84817002.235  
  21392277.742   112417189.757    21392285.309    87597897.989  
  22426013.500   117849531.721                                  
  23890861.063   125547181.086    23890866.754    97829112.643  
  23184619.258   121835905.298    23184627.219    94937204.161  
  22950702.414   120606742.135    22950709.988    93979367.738  
  20475950.383   107601918.254    20475955.645    83845679.706  
  23530537.500   123653867.931                                  
  22018598.281   115708786.413    22018604.473    90162544.144  
 21  1  7 23  1 23.0000000  0  9G30G 8G28G 5G 9G27G 7G13G14
  20712897.578   108847121.370    20712905.344    84815935.719  
  21392269.305   112417145.946    21392277.078    87597863.853  
  22425495.680   117846809.092                                  
  23891176.156   125548827.903    23891180.750    97830395.876  
  23185307.703   121839524.393    23185315.816    94940024.237  
  22951157.914   120609133.273    22951165.145    93981230.958  
  20476048.680   107602436.355    20476053.605    83846083.421  
  23529912.563   123650586.273                                  
  22018062.914   115705974.832    22018068.863    90160353.304  
 21  1  7 23  1 24.0000000  0  9G30G 8G28G 5G 9G27G 7G13G14
  20712637.242   108845753.034    20712644.844    84814869.485  
  21392261.547   112417102.859    21392269.266    87597830.283  
  22424977.586   117844086.791                                  
  23891489.391   125550475.226    23891494.867    97831679.503  
  23185996.273   121843143.687    23186004.043    94942844.466  
  22951613.188   120611524.956    22951619.957    93983094.606  
  20476147.680   107602954.871    20476152.770    83846487.454  
  23529288.398   123647304.961                                  
  22017528.352   115703163.580    22017534.516    90158162.719  
 21  1  7 23  1 25.0000000  0  9G30G 8G28G 5G 9G27G 7G13G14
  20712377.086   108844385.097    20712384.992    84813803.563  
  21392253.531   112417060.505    21392261.070    87597797.278  
  22424459.469   117841364.800                                  
  23891801.383   125552123.078    23891808.195    97832963.553  
  23186684.781   121846763.260    23186693.148    94945664.912  
  22952067.898   120613917.193    22952074.973    93984958.687  
  20476246.195   107603473.830    20476251.426    83846891.845  
  23528663.672   123644023.912                                  
  22016993.398   115700352.694    22016999.535    90155972.420  
 21  1  7 23  1 26.0000000  0  9G30G 8G28G 5G 9G27G 7G13G14
  20712116.758   108843017.531    20712124.430    84812737.921  
  21392245.258   112417018.842    21392253.059    87597764.815  
  22423941.969   117838643.089                                  
  23892112.055   125553771.469    23892121.906    97834248.024  
  23187373.688   121850383.007    23187381.371    94948485.489  
  22952523.094   120616309.965    22952530.500    93986823.186  
  20476345.195   107603993.160    20476350.098    83847296.516  
  23528039.930   123640743.158                                  
  22016458.484   115697542.099    22016464.484    90153782.352  
 21  1  7 23  1 27.0000000  0  9G30G 8G28G 5G 9G27G 7G13G14
  20711856.461   108841650.338    20711864.539    84811672.578  
  21392237.422   112416977.874    21392245.688    87597732.888  
  22423423.898   117835921.672                                  
  23892426.102   125555420.307    23892434.898    97835532.828  
  23188062.531   121854002.997    23188070.844    94951306.258  
  22952978.750   120618703.312    22952985.797    93988688.135  
  20476444.094   107604512.917    20476449.105    83847701.515  
  23527415.594   123637462.642                                  
  22015923.406   115694731.834    22015929.477    90151592.531  
 21  1  7 23  1 28.0000000  0  9G30G 8G28G 5G 9G27G 7G13G14
  20711596.750   108840283.581    20711604.402    84810607.575  
  21392229.797   112416937.660    21392237.488    87597701.553  
  22422906.789   117833200.620                                  
  23892742.039   125557069.824    23892748.605    97836818.155  
  23188751.672   121857623.270    23188759.730    94954127.246  
  22953434.430   120621097.231    22953441.344    93990553.526  
  20476543.078   107605033.131    20476548.359    83848106.876  
  23526791.547   123634182.505                                  
  22015389.273   115691921.964    22015394.656    90149403.025  
 21  1  7 23  1 29.0000000  0  9G30G 8G28G 5G 9G27G 7G13G14
  20711336.672   108838917.201    20711344.320    84809542.860  
  21392222.297   112416898.174    21392230.215    87597670.785  
  22422388.492   117830479.863                                  
  23893057.891   125558719.822    23893062.746    97838103.859  
  23189440.813   121861243.808    23189448.402    94956948.444  
  22953890.508   120623491.682    22953897.059    93992419.334  
  20476641.789   107605553.767    20476647.199    83848512.570  
  23526166.969   123630902.638                                  
  22014854.344   115689112.412    22014860.551    90147213.761  
 21  1  7 23  1 30.0000000  0  9G30G 8G28G 5G 9G27G 7G13G14
  20711076.695   108837551.213    20711084.348    84808478.454  
  21392214.906   112416859.379    21392222.832    87597640.556  
  22421870.453   117827759.425                                  
  23893373.578   125560370.320    23893377.000    97839389.964  
  23190130.047   121864864.526    23190137.078    94959769.782  
  22954346.422   120625886.741    22954353.371    93994285.611  
  20476740.938   107606074.833    20476746.402    83848918.596  
  23525542.758   123627623.043                                  
  22014319.516   115686303.211    22014325.898    90145024.780  
 21  1  7 23  1 31.0000000  0  9G30G 8G28G 5G 9G27G 7G13G14
  20710817.094   108836185.626    20710824.133    84807414.359  
  21392207.500   112416821.319    21392215.516    87597610.897  
  22421352.789   117825039.290                                  
  23893685.508   125562021.334    23893691.484    97840676.474  
  23190818.875   121868485.491    23190826.410    94962591.317  
  22954802.742   120628282.334    22954809.027    93996152.307  
  20476840.484   107606596.306    20476845.578    83849324.940  
  23524918.492   123624343.749                                  
  22013785.422   115683494.338    22013791.563    90142836.046  
 21  1  7 23  1 32.0000000  0  9G30G 8G28G 5G 9G27G 7G13G14
  20710556.898   108834820.372    20710564.645    84806350.527  
  21392200.547   112416783.899    21392208.676    87597581.734  
  22420835.359   117822319.417                                  
  23893997.945   125563672.890    23894006.352    97841963.408  
  23191507.891   121872106.678    23191515.582    94965413.016  
  22955257.703   120630678.413    22955264.883    93998019.384  
  20476940.008   107607118.142    20476945.172    83849731.569  
  23524294.836   123621064.695                                  
  22013251.047   115680685.763    22013257.148    90140647.549  
 21  1  7 23  1 33.0000000  0  9G30G 8G28G 5G 9G27G 7G13G14
  20710296.961   108833455.592    20710305.055    84805287.058  
  21392193.703   112416747.235    21392201.820    87597553.164  
  22420318.031   117819599.931                                  
  23894311.539   125565325.013    23894320.367    97843250.776  
  23192197.016   121875728.141    23192205.238    94968234.937  
  22955713.500   120633075.152    22955720.938    93999886.974  
  20477039.055   107607640.483    20477043.891    83850138.585  
  23523670.906   123617786.011                                  
  22012716.891   115677877.590    22012723.184    90138459.363  
 21  1  7 23  1 34.0000000  0  9G30G 8G28G 5G 9G27G 7G13G14
  20710037.148   108832091.138    20710045.121    84804223.849  
  21392187.031   112416711.263    21392194.672    87597525.137  
  22419800.836   117816880.689                                  
  23894626.516   125566977.620    23894634.223    97844538.511  
  23192886.719   121879349.799    23192893.813    94971057.008  
  22956170.047   120635472.394    22956177.047    94001754.954  
  20477138.789   107608163.202    20477143.750    83850545.896  
  23523047.148   123614507.570                                  
  22012182.625   115675069.711    22012188.617    90136271.405  
 21  1  7 23  1 35.0000000  0  9G30G 8G28G 5G 9G27G 7G13G14
  20709778.102   108830727.107    20709785.707    84803160.967  
  21392180.188   112416676.009    21392187.656    87597497.668  
  22419283.117   117814161.824                                  
  23894943.422   125568630.807    23894948.047    97845826.700  
  23193576.391   121882971.770    23193582.641    94973879.318  
  22956626.336   120637870.208    22956633.766    94003623.382  
  20477238.352   107608686.372    20477243.332    83850953.566  
  23522423.484   123611229.451                                  
  22011647.977   115672262.201    22011653.898    90134083.736  
 21  1  7 23  1 36.0000000  0  9G30G 8G28G 5G 9G27G 7G13G14
  20709518.227   108829363.461    20709526.059    84802098.382  
  21392173.516   112416641.470    21392181.465    87597470.756  
  22418765.859   117811443.236                                  
  23895259.875   125570284.473    23895263.152    97847115.268  
  23194265.539   121886593.885    23194272.355    94976701.745  
  22957082.828   120640268.562    22957090.039    94005492.229  
  20477337.891   107609209.935    20477343.078    83851361.538  
  23521799.336   123607951.603                                  
  22011113.914   115669455.006    22011120.188    90131896.310  
 21  1  7 23  1 37.0000000  0  9G30G 8G28G 5G 9G27G 7G13G14
  20709259.289   108828000.223    20709266.945    84801036.124  
  21392167.070   112416607.683    21392174.777    87597444.426  
  22418248.781   117808724.982                                  
  23895574.141   125571938.693    23895578.742    97848404.282  
  23194953.695   121890216.305    23194961.348    94979524.408  
  22957538.656   120642667.510    22957546.051    94007361.537  
  20477437.719   107609733.960    20477442.832    83851769.869  
  23521175.656   123604674.073                                  
  22010579.516   115666648.189    22010585.719    90129709.183  
 21  1  7 23  1 38.0000000  0  9G30G 8G28G 5G 9G27G 7G13G14
  20709000.031   108826637.362    20709007.594    84799974.157  
  21392160.844   112416574.614    21392168.508    87597418.661  
  22417730.977   117806007.069                                  
  23895887.008   125573593.446    23895893.102    97849693.702  
  23195643.688   121893838.965    23195650.418    94982347.259  
  22957995.117   120645067.003    22958003.023    94009231.276  
  20477537.438   107610258.382    20477542.520    83852178.505  
  23520552.000   123601396.853                                  
  22010045.172   115663841.700    22010051.387    90127522.312  
 21  1  7 23  1 39.0000000  0  9G30G 8G28G 5G 9G27G 7G13G14
  20708740.445   108825274.895    20708748.551    84798912.492  
  21392154.477   112416542.215    21392162.453    87597393.415  
  22417214.188   117803289.418                                  
  23896199.891   125575248.722    23896208.926    97850983.533  
  23196332.930   121897461.809    23196339.844    94985170.256  
  22958452.000   120647467.049    22958459.496    94011101.443  
  20477637.336   107610783.238    20477642.406    83852587.487  
  23519928.391   123598119.908                                  
  22009511.391   115661035.541    22009517.531    90125335.696  
 21  1  7 23  1 40.0000000  0  9G30G 8G28G 5G 9G27G 7G13G14
  20708480.922   108823912.775    20708489.145    84797851.097  
  21392148.555   112416510.507    21392155.949    87597368.701  
  22416696.836   117800572.077                                  
  23896514.383   125576904.506    23896523.902    97852273.738  
  23197022.914   121901084.905    23197029.793    94987993.448  
  22958909.031   120649867.597    22958916.527    94012971.995  
  20477737.125   107611308.468    20477742.496    83852996.755  
  23519304.984   123594843.216                                  
  22008977.688   115658229.676    22008983.988    90123149.302  
 21  1  7 23  1 41.0000000  0  9G30G 8G28G 5G 9G27G 7G13G14
  20708221.953   108822551.114    20708229.785    84796790.064  
  21392143.070   112416479.576    21392150.656    87597344.600  
  22416180.141   117797855.099                                  
  23896831.102   125578560.847    23896838.621    97853564.379  
  23197712.148   121904708.293    23197719.531    94990816.863  
  22959366.000   120652268.791    22959373.480    94014843.054  
  20477837.492   107611834.181    20477842.492    83853406.398  
  23518680.773   123591566.854                                  
  22008443.758   115655424.217    22008450.035    90120963.235  
 21  1  7 23  1 42.0000000  0  9G30G 8G28G 5G 9G27G 7G13G14
  20707962.977   108821189.811    20707970.922    84795729.307  
  21392136.859   112416449.290    21392144.555    87597321.007  
  22415663.570   117795138.407                                  
  23897148.266   125580217.722    23897154.117    97854855.438  
  23198401.820   121908331.864    23198409.117    94993640.421  
  22959822.797   120654670.495    22959830.512    94016714.512  
  20477937.508   107612360.282    20477942.508    83853816.349  
  23518058.281   123588290.778                                  
  22007909.781   115652619.073    22007916.055    90118777.405  
 21  1  7 23  1 43.0000000  0  9G30G 8G28G 5G 9G27G 7G13G14
  20707703.477   108819828.914    20707711.820    84794668.869  
  21392130.805   112416419.779    21392138.578    87597298.009  
  22415146.883   117792422.032                                  
  23897464.688   125581875.117    23897470.020    97856146.921  
  23199091.625   121911955.702    23199098.734    94996464.186  
  22960280.344   120657072.783    22960287.500    94018586.426  
  20478037.922   107612886.833    20478042.590    83854226.649  
  23517434.648   123585015.005                                  
  22007375.938   115649814.296    22007382.410    90116591.867  
 21  1  7 23  1 44.0000000  0  9G30G 8G28G 5G 9G27G 7G13G14
  20707445.219   108818468.444    20707453.363    84793608.766  
  21392125.586   112416390.963    21392133.609    87597275.555  
  22414629.477   117789705.994                                  
  23897778.750   125583533.036    23897785.492    97857438.820  
  23199781.133   121915579.783    23199788.371    94999288.139  
  22960737.508   120659475.647    22960744.898    94020458.784  
  20478137.844   107613413.826    20478143.063    83854637.290  
  23516811.727   123581739.553                                  
  22006842.359   115647009.838    22006848.418    90114406.578  
 21  1  7 23  1 45.0000000  0  9G30G 8G28G 5G 9G27G 7G13G14
  20707186.477   108817108.301    20707194.297    84792548.916  
  21392120.820   112416362.805    21392128.418    87597253.615  
  22414112.781   117786990.235                                  
  23898092.484   125585191.484    23898100.922    97858731.125  
  23200470.680   121919204.095    23200477.969    95002112.283  
  22961194.602   120661878.980    22961202.344    94022331.506  
  20478238.008   107613941.190    20478243.648    83855048.229  
  23516187.883   123578464.309                                  
  22006308.555   115644205.710    22006315.066    90112221.541  
 21  1  7 23  1 46.0000000  0  9G30G 8G28G 5G 9G27G 7G13G14
  20706927.531   108815748.585    20706935.621    84791489.395  
  21392115.234   112416335.421    21392122.730    87597232.277  
  22413595.859   117784274.821                                  
  23898407.492   125586850.484    23898416.715    97860023.859  
  23201160.516   121922828.601    23201167.484    95004936.573  
  22961652.602   120664282.968    22961659.797    94024204.740  
  20478338.445   107614468.997    20478343.461    83855459.506  
  23515564.914   123575189.434                                  
  22005775.141   115641401.936    22005781.102    90110036.785  
 21  1  7 23  1 47.0000000  0  9G30G 8G28G 5G 9G27G 7G13G14
  20706668.914   108814389.227    20706677.164    84790430.155  
  21392110.047   112416308.733    21392117.672    87597211.483  
  22413079.281   117781559.644                                  
  23898724.242   125588509.960    23898732.305    97861316.950  
  23201850.336   121926453.365    23201856.984    95007761.072  
  22962109.984   120666687.436    22962117.258    94026078.351  
  20478439.508   107614997.207    20478444.039    83855871.099  
  23514941.867   123571914.798                                  
  22005241.672   115638598.483    22005248.203    90107852.277  
 21  1  7 23  1 48.0000000  0  9G30G 8G28G 5G 9G27G 7G13G14
  20706409.953   108813030.307    20706418.133    84789371.252  
  21392105.023   112416282.793    21392113.148    87597191.271  
  22412562.445   117778844.885                                  
  23899041.961   125590170.047    23899048.191    97862610.511  
  23202539.961   121930078.368    23202547.363    95010585.746  
  22962568.164   120669092.501    22962574.430    94027952.429  
  20478539.953   107615525.883    20478545.066    83856283.053  
  23514318.523   123568640.508                                  
  22004708.141   115635795.400    22004714.527    90105668.059  
 21  1  7 23  1 49.0000000  0  9G30G 8G28G 5G 9G27G 7G13G14
  20706151.750   108811671.757    20706160.332    84788312.639  
  21392100.398   112416257.521    21392108.066    87597171.581  
  22412046.289   117776130.373                                  
  23899358.961   125591830.583    23899363.730    97863904.424  
  23203229.578   121933703.607    23203237.375    95013410.609  
  22963025.430   120671498.106    22963032.570    94029826.926  
  20478640.742   107616054.959    20478645.336    83856695.319  
  23513695.672   123565366.474                                  
  22004174.859   115632992.622    22004181.160    90103484.074  
 21  1  7 23  1 50.0000000  0  9G30G 8G28G 5G 9G27G 7G13G14
  20705893.281   108810313.613    20705901.371    84787254.350  
  21392095.695   112416232.993    21392103.730    87597152.467  
  22411529.531   117773416.220                                  
  23899675.078   125593491.660    23899679.832    97865198.778  
  23203919.148   121937329.125    23203927.160    95016235.686  
  22963482.906   120673904.305    22963490.164    94031701.885  
  20478741.422   107616584.458    20478746.727    83857107.915  
  23513072.539   123562092.761                                  
  22003641.852   115630190.228    22003648.246    90101300.395  
 21  1  7 23  1 51.0000000  0  9G30G 8G28G 5G 9G27G 7G13G14
  20705634.578   108808955.836    20705642.766    84786196.344  
  21392091.383   112416209.137    21392099.434    87597133.876  
  22411013.500   117770702.338                                  
  23899989.305   125595153.263    23899996.332    97866493.543  
  23204609.617   121940954.804    23204617.020    95019060.881  
  22963941.398   120676310.997    22963948.195    94033577.229  
  20478842.383   107617114.360    20478847.605    83857520.826  
  23512449.695   123558819.324                                  
  22003108.430   115627388.135    22003114.809    90099116.952  
 21  1  7 23  1 52.0000000  0  9G30G 8G28G 5G 9G27G 7G13G14
  20705376.594   108807598.472    20705384.434    84785138.657  
  21392086.531   112416186.034    21392094.723    87597115.871  
  22410496.250   117767988.801                                  
  23900303.781   125596815.432    23900312.484    97867788.748  
  23205299.914   121944580.782    23205306.676    95021886.320  
  22964399.125   120678718.306    22964406.473    94035453.057  
  20478942.984   107617644.705    20478948.352    83857934.083  
  23511827.453   123555546.193                                  
  22002575.297   115624586.375    22002581.426    90096933.761  
 21  1  7 23  1 53.0000000  0  9G30G 8G28G 5G 9G27G 7G13G14
  20705118.602   108806241.462    20705126.430    84784081.244  
  21392082.555   112416163.608    21392090.313    87597098.400  
  22409980.414   117765275.567                                  
  23900620.367   125598478.092    23900628.445    97869084.328  
  23205989.234   121948206.961    23205996.805    95024711.918  
  22964858.180   120681126.132    22964864.996    94037329.287  
  20479043.656   107618175.462    20479049.035    83858347.654  
  23511204.742   123552273.355                                  
  22002042.563   115621784.977    22002048.492    90094750.855  
 21  1  7 23  1 54.0000000  0  9G30G 8G28G 5G 9G27G 7G13G14
  20704860.313   108804884.874    20704868.207    84783024.168  
  21392078.266   112416141.924    21392086.410    87597081.506  
  22409464.633   117762562.623                                  
  23900938.477   125600141.290    23900945.254    97870380.319  
  23206679.586   121951833.370    23206687.059    95027537.689  
  22965316.164   120683534.527    22965322.980    94039205.958  
  20479144.938   107618706.642    20479150.148    83858761.568  
  23510581.508   123549000.792                                  
  22001509.305   115618983.910    22001515.359    90092568.206  
 21  1  7 23  1 55.0000000  0  9G30G 8G28G 5G 9G27G 7G13G14
  20704602.148   108803528.678    20704610.195    84781967.392  
  21392074.359   112416120.960    21392082.199    87597065.167  
  22408947.680   117759850.008                                  
  23901256.844   125601805.016    23901262.270    97871676.720  
  23207369.969   121955460.029    23207377.125    95030363.658  
  22965774.352   120685943.442    22965781.457    94041083.037  
  20479246.297   107619238.246    20479251.301    83859175.799  
  23509958.680   123545728.543                                  
  22000976.352   115616183.198    22000982.207    90090385.837  
 21  1  7 23  1 56.0000000  0  9G30G 8G28G 5G 9G27G 7G13G14
  20704344.453   108802172.900    20704352.273    84780910.937  
  21392070.313   112416100.703    21392078.406    87597049.382  
  22408431.336   117757137.716                                  
  23901574.297   125603469.266    23901578.973    97872973.533  
  23208059.609   121959086.935    23208066.859    95033189.818  
  22966232.758   120688352.953    22966240.391    94042960.574  
  20479347.523   107619770.281    20479352.934    83859590.371  
  23509336.336   123542456.607                                  
  22000443.367   115613382.841    22000449.570    90088203.739  
 21  1  7 23  1 57.0000000  0  9G30G 8G28G 5G 9G27G 7G13G14
  20704086.156   108800817.496    20704094.477    84779854.779  
  21392066.695   112416081.149    21392074.922    87597034.143  
  22407915.625   117754425.720                                  
  23901890.320   125605134.050    23901895.992    97874270.777  
  23208749.922   121962714.075    23208757.332    95036016.163  
  22966691.445   120690763.011    22966698.891    94044838.545  
  20479448.813   107620302.750    20479453.488    83860005.285  
  23508713.039   123539184.955                                  
  21999910.961   115610582.805    21999916.918    90086021.886  
 21  1  7 23  1 58.0000000  0  9G30G 8G28G 5G 9G27G 7G13G14
  20703828.031   108799462.474    20703836.234    84778798.922  
  21392063.281   112416062.328    21392071.195    87597019.483  
  22407399.961   117751714.091                                  
  23902205.211   125606799.390    23902212.652    97875568.448  
  23209440.234   121966341.431    23209447.617    95038842.669  
  22967149.984   120693173.658    22967157.715    94046716.970  
  20479550.305   107620835.660    20479555.520    83860420.545  
  23508090.508   123535913.593                                  
  21999377.953   115607783.123    21999383.586    90083840.321  
 21  1  7 23  1 59.0000000  0  9G30G 8G28G 5G 9G27G 7G13G14
  20703570.586   108798107.813    20703578.305    84777743.339  
  21392059.836   112416044.174    21392068.305    87597005.332  
  22406883.773   117749002.702                                  
  23902520.688   125608465.193    23902529.813    97876866.479  
  23210130.438   121969969.037    23210137.910    95041669.376  
  22967609.063   120695584.805    22967616.504    94048595.791  
  20479651.703   107621368.931    20479657.227    83860836.079  
  23507467.875   123532642.482                                  
  21998845.094   115604983.749    21998851.426    90081658.992  
 21  1  7 23  2  0.0000000  0  9G30G 8G28G 5G 9G27G 7G13G14
  20703312.945   108796753.590    20703321.059    84776688.100  
  21392056.242   112416026.760    21392064.277    87596991.766  
  22406368.180   117746291.666                                  
  23902838.180   125610131.549    23902846.789    97878164.934  
  23210820.727   121973596.878    23210828.199    95044496.266  
  22968067.875   120697996.514    22968075.820    94050475.046  
  20479753.148   107621902.655    20479758.723    83861251.964  
  23506846.047   123529371.720                                  
  21998312.359   115602184.715    21998318.852    90079477.926  
 21  1  7 23  2  1.0000000  0  9G30G 8G28G 5G 9G27G 7G13G14
  20703055.336   108795399.758    20703063.406    84775633.171  
  21392053.695   112416010.067    21392061.074    87596978.760  
  22405851.695   117743580.950                                  
  23903156.453   125611798.423    23903163.949    97879463.792  
  23211511.313   121977224.939    23211518.594    95047323.323  
  22968526.742   120700408.817    22968534.406    94052354.755  
  20479855.055   107622436.800    20479860.168    83861668.183  
  23506223.617   123526101.245                                  
  21997779.984   115599386.066    21997785.926    90077297.168  
 21  1  7 23  2  2.0000000  0  9G30G 8G28G 5G 9G27G 7G13G14
  20702798.031   108794046.304    20702806.027    84774578.530  
  21392050.344   112415994.095    21392057.965    87596966.312  
  22405336.203   117740870.533                                  
  23903476.203   125613465.866    23903480.813    97880763.097  
  23212201.703   121980853.266    23212209.410    95050150.589  
  22968986.469   120702821.655    22968993.293    94054234.890  
  20479956.844   107622971.383    20479961.355    83862084.739  
  23505601.203   123522831.067                                  
  21997247.539   115596587.734    21997252.980    90075116.652  
 21  1  7 23  2  3.0000000  0  9G30G 8G28G 5G 9G27G 7G13G14
  20702540.445   108792693.271    20702548.777    84773524.216  
  21392047.172   112415978.827    21392055.148    87596954.416  
  22404820.547   117738160.428                                  
  23903793.445   125615133.804    23903798.668    97882062.793  
  23212892.367   121984481.802    23212899.664    95052978.016  
  22969446.055   120705235.069    22969452.824    94056115.469  
  20480058.570   107623506.386    20480063.789    83862501.625  
  23504978.953   123519561.179                                  
  21996715.180   115593789.742    21996720.914    90072936.399  
 21  1  7 23  2  4.0000000  0  9G30G 8G28G 5G 9G27G 7G13G14
  20702282.945   108791340.610    20702291.098    84772470.192  
  21392044.508   112415964.273    21392052.781    87596943.076  
  22404304.867   117735450.643                                  
  23904109.609   125616802.212    23904116.332    97883362.856  
  23213582.906   121988110.626    23213590.305    95055805.667  
  22969905.156   120707649.002    22969912.430    94057996.457  
  20480160.352   107624041.815    20480165.492    83862918.846  
  23504356.867   123516291.597                                  
  21996182.758   115590992.106    21996189.070    90070756.420  
 21  1  7 23  2  5.0000000  0  9G30G 8G28G 5G 9G27G 7G13G14
  20702025.719   108789988.362    20702033.430    84771416.494  
  21392042.016   112415950.446    21392049.945    87596932.300  
  22403789.672   117732741.173                                  
  23904424.742   125618471.318    23904433.918    97884663.453  
  23214273.344   121991739.642    23214281.020    95058633.478  
  22970364.508   120710063.518    22970371.406    94059877.903  
  20480262.172   107624577.678    20480267.363    83863336.398  
  23503734.266   123513022.315                                  
  21995650.273   115588194.819    21995656.516    90068576.716  
 21  1  7 23  2  6.0000000  0  9G30G 8G28G 5G 9G27G 7G13G14
  20701768.336   108788636.450    20701776.453    84770363.058  
  21392039.250   112415937.289    21392047.047    87596922.049  
  22403273.617   117730031.992                                  
  23904742.344   125620140.775    23904751.641    97885964.321  
  23214964.781   121995368.867    23214971.414    95061461.443  
  22970823.805   120712478.550    22970831.066    94061759.744  
  20480364.211   107625113.907    20480369.328    83863754.243  
  23503112.828   123509753.276                                  
  21995118.094   115585397.810    21995124.047    90066397.226  
 21  1  7 23  2  7.0000000  0  9G30G 8G28G 5G 9G27G 7G13G14
  20701511.211   108787284.950    20701519.305    84769309.938  
  21392037.070   112415924.886    21392045.176    87596912.380  
  22402758.727   117727323.123                                  
  23905061.508   125621810.850    23905069.262    97887265.669  
  23215654.875   121998998.320    23215662.422    95064289.583  
  22971283.539   120714894.138    22971290.488    94063642.017  
  20480466.711   107625650.570    20480472.109    83864172.419  
  23502491.008   123506484.563                                  
  21994586.172   115582601.158    21994591.883    90064218.024  
 21  1  7 23  2  8.0000000  0  9G30G 8G28G 5G 9G27G 7G13G14
  20701253.961   108785933.895    20701261.910    84768257.169  
  21392034.852   112415913.207    21392043.070    87596903.282  
  22402242.578   117724614.636                                  
  23905380.469   125623481.466    23905386.551    97888567.444  
  23216346.078   122002628.045    23216352.895    95067117.938  
  22971742.539   120717310.333    22971750.324    94065524.762  
  20480568.438   107626187.715    20480573.363    83864590.976  
  23501868.891   123503216.151                                  
  21994054.438   115579804.898    21994059.594    90062039.123  
 21  1  7 23  2  9.0000000  0  9G30G 8G28G 5G 9G27G 7G13G14
  20700997.258   108784583.215    20701005.199    84767204.688  
  21392032.508   112415902.272    21392040.305    87596894.759  
  22401727.617   117721906.430                                  
  23905699.867   125625152.585    23905704.980    97889869.622  
  23217037.102   122006258.058    23217043.922    95069946.518  
  22972202.477   120719727.090    22972210.500    94067407.950  
  20480671.172   107626725.296    20480676.277    83865009.865  
  23501246.664   123499948.046                                  
  21993521.992   115577008.990    21993528.043    90059860.492  
 21  1  7 23  2 10.0000000  0  9G30G 8G28G 5G 9G27G 7G13G14
  20700740.516   108783232.925    20700748.133    84766152.515  
  21392030.875   112415891.990    21392038.961    87596886.754  
  22401211.586   117719198.545                                  
  23906017.680   125626824.241    23906023.152    97891172.223  
  23217727.445   122009888.268    23217734.449    95072775.260  
  22972663.094   120722144.351    22972670.320    94069291.535  
  20480773.320   107627263.259    20480778.320    83865429.055  
  23500625.117   123496680.241                                  
  21992990.063   115574213.400    21992995.594    90057682.113  
 21  1  7 23  2 11.0000000  0  9G30G 8G28G 5G 9G27G 7G13G14
  20700483.141   108781882.976    20700491.039    84765100.610  
  21392029.070   112415882.406    21392037.363    87596879.285  
  22400696.898   117716490.929                                  
  23906334.086   125628496.362    23906341.242    97892475.184  
  23218418.523   122013518.682    23218425.348    95075604.157  
  22973122.609   120724562.169    22973130.070    94071175.546  
  20480875.578   107627801.599    20480880.828    83865848.543  
  23500002.875   123493412.703                                  
  21992458.039   115571418.109    21992463.973    90055503.969  
 21  1  7 23  2 12.0000000  0  9G30G 8G28G 5G 9G27G 7G13G14
  20700226.164   108780533.467    20700234.172    84764049.038  
  21392027.484   112415873.568    21392035.184    87596872.395  
  22400182.023   117713783.655                                  
  23906650.766   125630169.038    23906659.965    97893778.569  
  23219108.805   122017149.326    23219115.809    95078433.232  
  22973583.234   120726980.576    22973590.320    94073060.019  
  20480978.477   107628340.425    20480983.660    83866268.408  
  23499381.844   123490145.457                                  
  21991926.383   115568623.188    21991931.793    90053326.108  
 21  1  7 23  2 13.0000000  0  9G30G 8G28G 5G 9G27G 7G13G14
  20699969.305   108779184.341    20699977.883    84762997.773  
  21392025.906   112415865.431    21392033.691    87596866.057  
  22399667.102   117711076.696                                  
  23906969.367   125631842.254    23906977.949    97895082.360  
  23219800.094   122020780.225    23219806.930    95081262.503  
  22974043.469   120729399.504    22974050.574    94074944.900  
  20481080.852   107628879.656    20481086.090    83866688.589  
  23498760.250   123486878.514                                  
  21991394.203   115565828.605    21991400.043    90051148.507  
 21  1  7 23  2 14.0000000  0  9G30G 8G28G 5G 9G27G 7G13G14
  20699712.891   108777835.620    20699720.926    84761946.827  
  21392024.484   112415858.023    21392032.270    87596860.285  
  22399151.938   117708370.040                                  
  23907290.117   125633516.055    23907296.289    97896386.609  
  23220490.789   122024411.344    23220497.832    95084091.943  
  22974503.836   120731819.007    22974510.785    94076830.224  
  20481183.586   107629419.300    20481188.879    83867109.095  
  23498138.242   123483611.877                                  
  21990862.953   115563034.374    21990868.398    90048971.182  
 21  1  7 23  2 15.0000000  0  9G30G 8G28G 5G 9G27G 7G13G14
  20699456.156   108776487.297    20699464.402    84760896.181  
  21392022.977   112415851.352    21392030.961    87596855.086  
  22398636.594   117705663.728                                  
  23907610.586   125635190.278    23907615.289    97897691.196  
  23221181.688   122028042.696    23221189.117    95086921.562  
  22974964.195   120734239.057    22974971.512    94078715.975  
  20481286.242   107629959.393    20481291.504    83867529.946  
  23497517.234   123480345.566                                  
  21990331.148   115560240.479    21990336.984    90046794.126  
 21  1  7 23  2 16.0000000  0  9G30G 8G28G 5G 9G27G 7G13G14
  20699199.828   108775139.365    20699207.590    84759845.853  
  21392021.398   112415845.388    21392029.648    87596850.439  
  22398121.609   117702957.697                                  
  23907928.742   125636865.087    23907933.629    97898996.245  
  23221873.539   122031674.317    23221880.289    95089751.394  
  22975424.602   120736659.674    22975432.242    94080602.171  
  20481389.008   107630499.900    20481393.973    83867951.121  
  23496895.242   123477079.516                                  
  21989799.250   115557446.939    21989805.281    90044617.343  
 21  1  7 23  2 17.0000000  0  9G30G 8G28G 5G 9G27G 7G13G14
  20698943.313   108773791.779    20698951.582    84758795.785  
  21392021.203   112415840.104    21392029.211    87596846.319  
  22397606.625   117700251.991                                  
  23908245.859   125638540.393    23908252.430    97900301.687  
  23222564.125   122035306.150    23222571.574    95092581.395  
  22975885.547   120739080.794    22975893.289    94082488.752  
  20481492.414   107631040.798    20481497.395    83868372.596  
  23496274.172   123473813.764                                  
  21989267.563   115554653.700    21989273.762    90042440.791  
 21  1  7 23  2 18.0000000  0  9G30G 8G28G 5G 9G27G 7G13G14
  20698687.039   108772444.607    20698694.762    84757746.042  
  21392020.164   112415835.532    21392028.539    87596842.763  
  22397091.813   117697546.578                                  
  23908563.047   125640216.230    23908570.926    97901607.541  
  23223255.055   122038938.178    23223262.586    95095411.545  
  22976346.594   120741502.479    22976354.043    94084375.784  
  20481595.125   107631582.125    20481600.379    83868794.410  
  23495652.359   123470548.296                                  
  21988736.156   115551860.804    21988742.578    90040264.513  
 21  1  7 23  2 19.0000000  0  9G30G 8G28G 5G 9G27G 7G13G14
  20698431.109   108771097.856    20698438.789    84756696.628  
  21392019.445   112415831.680    21392027.793    87596839.760  
  22396576.867   117694841.515                                  
  23908881.359   125641892.603    23908890.152    97902913.807  
  23223947.211   122042570.506    23223953.785    95098241.931  
  22976807.938   120743924.770    22976814.734    94086263.281  
  20481698.617   107632123.901    20481703.023    83869216.575  
  23495031.500   123467283.151                                  
  21988204.672   115549068.294    21988211.195    90038088.532  
 21  1  7 23  2 20.0000000  0  9G30G 8G28G 5G 9G27G 7G13G14
  20698174.977   108769751.484    20698182.535    84755647.506  
  21392018.648   112415828.534    21392027.012    87596837.308  
  22396062.391   117692136.746                                  
  23909201.609   125643569.505    23909209.172    97904220.471  
  23224637.336   122046203.055    23224645.289    95101072.484  
  22977268.914   120746347.571    22977276.398    94088151.184  
  20481801.414   107632666.095    20481806.379    83869639.061  
  23494409.516   123464018.296                                  
  21987673.250   115546276.114    21987679.758    90035912.807  
 21  1  7 23  2 21.0000000  0  9G30G 8G28G 5G 9G27G 7G13G14
  20697918.875   108768405.507    20697926.566    84754598.694  
  21392018.406   112415826.081    21392026.727    87596835.397  
  22395548.227   117689432.276                                  
  23909522.727   125645246.924    23909528.652    97905527.535  
  23225328.906   122049835.773    23225336.348    95103903.175  
  22977730.156   120748770.930    22977737.102    94090039.516  
  20481904.711   107633208.684    20481909.906    83870061.858  
  23493787.953   123460753.732                                  
  21987142.438   115543484.247    21987148.336    90033737.325  
 21  1  7 23  2 22.0000000  0  9G30G 8G28G 5G 9G27G 7G13G14
  20697662.891   108767059.927    20697670.492    84753550.188  
  21392017.867   112415824.389    21392025.762    87596834.077  
  22395032.813   117686728.147                                  
  23909842.953   125646924.863    23909848.355    97906835.022  
  23226020.055   122053468.797    23226027.176    95106734.104  
  22978191.172   120751194.871    22978198.066    94091928.304  
  20482007.797   107633751.714    20482012.902    83870484.998  
  23493167.141   123457489.494                                  
  21986611.180   115540692.767    21986616.680    90031562.156  
 21  1  7 23  2 23.0000000  0  9G30G 8G28G 5G 9G27G 7G13G14
  20697406.758   108765714.735    20697414.270    84752501.988  
  21392017.602   112415823.413    21392025.676    87596833.315  
  22394518.328   117684024.330                                  
  23910161.641   125648603.346    23910167.434    97908142.930  
  23226711.477   122057102.057    23226718.957    95109565.218  
  22978652.789   120753619.352    22978660.316    94093817.510  
  20482111.531   107634295.184    20482116.246    83870908.481  
  23492545.742   123454225.540                                  
  21986080.172   115537901.601    21986086.016    90029387.218  
 21  1  7 23  2 24.0000000  0  9G30G 8G28G 5G 9G27G 7G13G14
  20697150.602   108764369.954    20697158.359    84751454.102  
  21392017.898   112415823.139    21392025.527    87596833.106  
  22394004.461   117681320.826                                  
  23910479.789   125650282.307    23910486.859    97909451.219  
  23227403.711   122060735.545    23227410.430    95112396.500  
  22979114.258   120756044.378    22979121.242    94095707.143  
  20482214.891   107634839.064    20482220.254    83871332.286  
  23491925.320   123450961.901                                  
  21985548.977   115535110.774    21985554.934    90027212.551  
 21  1  7 23  2 25.0000000  0  9G30G 8G28G 5G 9G27G 7G13G14
  20696894.789   108763025.552    20696902.441    84750406.519  
  21392018.188   112415823.575    21392025.750    87596833.440  
  22393489.891   117678617.606                                  
  23910798.180   125651961.895    23910806.688    97910759.993  
  23228094.273   122064369.217    23228101.684    95115227.929  
  22979575.383   120758469.948    22979582.738    94097597.191  
  20482318.805   107635383.371    20482324.020    83871756.425  
  23491304.508   123447698.527                                  
  21985018.031   115532320.298    21985023.668    90025038.152  
 21  1  7 23  2 26.0000000  0  9G30G 8G28G 5G 9G27G 7G13G14
  20696639.203   108761681.544    20696647.250    84749359.235  
  21392017.766   112415824.728    21392025.859    87596834.337  
  22392975.578   117675914.729                                  
  23911117.547   125653641.957    23911125.926    97912069.126  
  23228786.219   122068003.164    23228793.156    95118059.579  
  22980037.383   120760896.078    22980044.508    94099487.682  
  20482422.555   107635928.085    20482427.594    83872180.875  
  23490683.852   123444435.465                                  
  21984486.547   115529530.173    21984492.828    90022864.030  
 21  1  7 23  2 27.0000000  0  9G30G 8G28G 5G 9G27G 7G13G14
  20696383.156   108760337.910    20696391.199    84748312.249  
  21392018.664   112415826.599    21392026.414    87596835.795  
  22392461.273   117673212.147                                  
  23911439.375   125655322.504    23911445.453    97913378.644  
  23229477.930   122071637.300    23229484.828    95120891.366  
  22980498.922   120763322.747    22980506.105    94101378.593  
  20482525.477   107636473.225    20482530.824    83872605.661  
  23490062.711   123441172.681                                  
  21983956.172   115526740.345    21983962.305    90020690.137  
 21  1  7 23  2 28.0000000  0  9G30G 8G28G 5G 9G27G 7G13G14
  20696127.742   108758994.737    20696135.637    84747265.622  
  21392018.938   112415829.223    21392027.441    87596837.843  
  22391947.234   117670509.930                                  
  23911760.758   125657003.633    23911765.781    97914688.610  
  23230169.789   122075271.751    23230176.699    95123723.410  
  22980960.945   120765750.046    22980968.359    94103269.992  
  20482629.828   107637018.827    20482634.434    83873030.800  
  23489441.633   123437910.255                                  
  21983425.516   115523950.914    21983431.508    90018516.553  
 21  1  7 23  2 29.0000000  0  9G30G 8G28G 5G 9G27G 7G13G14
  20695872.688   108757651.902    20695879.930    84746219.255  
  21392019.547   112415832.505    21392027.711    87596840.398  
  22391432.898   117667807.984                                  
  23912080.570   125658685.278    23912086.102    97915998.987  
  23230861.125   122078906.379    23230868.438    95126555.582  
  22981422.586   120768177.849    22981430.352    94105161.788  
  20482733.797   107637564.818    20482738.621    83873456.250  
  23488820.727   123434648.113                                  
  21982894.750   115521161.824    21982900.738    90016343.242  
 21  1  7 23  2 30.0000000  0  9G30G 8G28G 5G 9G27G 7G13G14
  20695617.063   108756309.448    20695624.555    84745173.185  
  21392020.180   112415836.489    21392028.609    87596843.503  
  22390918.586   117665106.365                                  
  23912399.805   125660367.428    23912406.848    97917309.755  
  23231552.727   122082541.242    23231560.152    95129387.944  
  22981884.898   120770606.192    22981892.273    94107054.003  
  20482837.625   107638111.221    20482842.820    83873882.020  
  23488199.773   123431386.223                                  
  21982364.070   115518373.040    21982369.746    90014170.167  
 21  1  7 23  2 31.0000000  0  9G30G 8G28G 5G 9G27G 7G13G14
  20695361.313   108754967.414    20695368.902    84744127.449  
  21392020.984   112415841.175    21392028.844    87596847.157  
  22390404.969   117662405.030                                  
  23912718.141   125662050.071    23912726.496    97918620.909  
  23232244.281   122086176.298    23232251.602    95132220.457  
  22982346.695   120773035.047    22982354.852    94108946.613  
  20482941.805   107638658.042    20482946.563    83874308.116  
  23487579.273   123428124.642                                  
  21981833.445   115515584.588    21981839.223    90011997.345  
 21  1  7 23  2 32.0000000  0  9G30G 8G28G 5G 9G27G 7G13G14
  20695106.055   108753625.771    20695113.977    84743082.008  
  21392021.781   112415846.573    21392029.945    87596851.359  
  22389891.523   117659704.050                                  
  23913038.336   125663733.300    23913046.746    97919932.511  
  23232936.070   122089811.624    23232943.605    95135053.176  
  22982809.375   120775464.536    22982816.492    94110839.715  
  20483045.828   107639205.307    20483051.008    83874734.553  
  23486958.914   123424863.386                                  
  21981302.516   115512796.509    21981308.629    90009824.814  
 21  1  7 23  2 33.0000000  0  9G30G 8G28G 5G 9G27G 7G13G14
  20694851.133   108752284.534    20694858.582    84742036.890  
  21392023.102   112415852.720    21392031.230    87596856.146  
  22389376.547   117657003.397                                  
  23913359.695   125665417.080    23913366.457    97921244.542  
  23233627.508   122093447.213    23233635.484    95137886.103  
  22983271.648   120777894.545    22983279.246    94112733.232  
  20483150.133   107639753.016    20483155.113    83875161.341  
  23486338.344   123421602.414                                  
  21980772.055   115510008.798    21980777.781    90007652.572  
 21  1  7 23  2 34.0000000  0  9G30G 8G28G 5G 9G27G 7G13G14
  20694596.023   108750943.675    20694603.410    84740992.068  
  21392024.609   112415859.563    21392032.410    87596861.481  
  22388862.523   117654303.023                                  
  23913681.297   125667101.311    23913686.867    97922556.928  
  23234319.563   122097083.028    23234326.996    95140719.211  
  22983733.938   120780325.089    22983741.996    94114627.161  
  20483254.383   107640301.132    20483259.516    83875588.441  
  23485718.398   123418341.755                                  
  21980241.938   115507221.386    21980247.629    90005480.565  
 21  1  7 23  2 35.0000000  0  9G30G 8G28G 5G 9G27G 7G13G14
  20694340.805   108749603.193    20694348.414    84739947.533  
  21392026.188   112415867.098    21392033.965    87596867.356  
  22388349.398   117651602.956                                  
  23914003.023   125668786.058    23914007.695    97923869.721  
  23235011.352   122100719.046    23235019.539    95143552.468  
  22984196.172   120782756.150    22984204.207    94116521.491  
  20483358.453   107640849.662    20483363.711    83876015.871  
  23485097.516   123415081.358                                  
  21979711.594   115504434.315    21979717.281    90003308.823  
 21  1  7 23  2 36.0000000  0  9G30G 8G28G 5G 9G27G 7G13G14
  20694085.492   108748263.107    20694093.785    84738903.315  
  21392027.883   112415875.335    21392035.410    87596873.774  
  22387835.227   117648903.236                                  
  23914323.109   125670471.362    23914328.410    97925182.956  
  23235703.492   122104355.283    23235711.555    95146385.904  
  22984659.430   120785187.810    22984667.262    94118416.297  
  20483463.305   107641398.605    20483468.539    83876443.614  
  23484476.539   123411821.280                                  
  21979181.391   115501647.593    21979187.043    90001137.355  
 21  1  7 23  2 37.0000000  0  9G30G 8G28G 5G 9G27G 7G13G14
  20693830.773   108746923.469    20693838.418    84737859.440  
  21392029.125   112415884.347    21392037.484    87596880.795  
  22387321.586   117646203.828                                  
  23914642.445   125672157.183    23914649.852    97926496.589  
  23236395.391   122107991.792    23236403.262    95149219.543  
  22985122.023   120787620.073    22985129.820    94120311.574  
  20483567.547   107641948.023    20483572.902    83876871.734  
  23483856.813   123408561.521                                  
  21978651.242   115498861.244    21978656.926    89998966.168  
 21  1  7 23  2 38.0000000  0  9G30G 8G28G 5G 9G27G 7G13G14
  20693576.094   108745584.172    20693583.582    84736815.833  
  21392031.172   112415894.020    21392039.059    87596888.336  
  22386808.109   117643504.709                                  
  23914961.672   125673843.544    23914970.625    97927810.635  
  23237088.023   122111628.516    23237095.063    95152053.350  
  22985585.406   120790052.818    22985592.082    94122207.222  
  20483672.250   107642497.813    20483677.445    83877300.146  
  23483236.875   123405302.027                                  
  21978120.867   115496075.192    21978126.574    89996795.227  
 21  1  7 23  2 39.0000000  0  9G30G 8G28G 5G 9G27G 7G13G14
  20693321.391   108744245.291    20693328.773    84735772.545  
  21392032.734   112415904.422    21392041.211    87596896.435  
  22386294.641   117640805.924                                  
  23915283.047   125675530.420    23915291.016    97929125.075  
  23237779.953   122115265.470    23237787.188    95154887.335  
  22986047.797   120792486.110    22986056.207    94124103.290  
  20483777.070   107643048.050    20483782.129    83877728.899  
  23482616.445   123402042.857                                  
  21977590.492   115493289.520    21977596.969    89994624.571  
 21  1  7 23  2 40.0000000  0  9G30G 8G28G 5G 9G27G 7G13G14
  20693066.594   108742906.798    20693074.223    84734729.567  
  21392035.453   112415915.554    21392043.281    87596905.112  
  22385780.953   117638107.474                                  
  23915605.172   125677217.819    23915612.160    97930439.919  
  23238471.938   122118902.678    23238479.273    95157721.525  
  22986511.484   120794920.011    22986519.207    94125999.838  
  20483882.141   107643598.718    20483887.004    83878157.992  
  23481995.883   123398783.979                                  
  21977060.805   115490504.167    21977066.207    89992454.168  
 21  1  7 23  2 41.0000000  0  9G30G 8G28G 5G 9G27G 7G13G14
  20692811.766   108741568.714    20692819.992    84733686.902  
  21392037.375   112415927.402    21392045.723    87596914.341  
  22385267.922   117635409.317                                  
  23915928.008   125678905.761    23915933.730    97931755.197  
  23239163.766   122122540.115    23239171.523    95160555.895  
  22986974.555   120797354.440    22986982.254    94127896.792  
  20483986.445   107644149.797    20483991.934    83878587.405  
  23481376.008   123395525.410                                  
  21976530.586   115487719.172    21976536.574    89990284.044  
 21  1  7 23  2 42.0000000  0  9G30G 8G28G 5G 9G27G 7G13G14
  20692557.227   108740230.983    20692564.988    84732644.516  
  21392039.766   112415939.954    21392048.277    87596924.126  
  22384754.063   117632711.473                                  
  23916249.234   125680594.173    23916254.492    97933070.845  
  23239856.422   122126177.736    23239863.469    95163390.403  
  22987437.781   120799789.372    22987445.539    94129794.142  
  20484091.984   107644701.287    20484096.996    83879017.135  
  23480756.180   123392267.121                                  
  21976000.797   115484934.500    21976006.918    89988114.168  
 21  1  7 23  2 43.0000000  0  9G30G 8G28G 5G 9G27G 7G13G14
  20692303.078   108738893.668    20692310.305    84731602.451  
  21392042.328   112415953.217    21392050.574    87596934.461  
  22384240.617   117630013.917                                  
  23916569.703   125682283.106    23916575.844    97934386.907  
  23240548.492   122129815.594    23240555.652    95166225.098  
  22987901.625   120802224.848    22987909.246    94131691.916  
  20484196.688   107645253.193    20484202.367    83879447.192  
  23480136.008   123389009.110                                  
  21975470.672   115482150.156    21975476.313    89985944.554  
 21  1  7 23  2 44.0000000  0  9G30G 8G28G 5G 9G27G 7G13G14
  20692048.430   108737556.762    20692055.863    84730560.706  
  21392045.570   112415967.198    21392053.051    87596945.355  
  22383727.547   117627316.727                                  
  23916890.031   125683972.615    23916897.742    97935703.418  
  23241241.133   122133453.711    23241247.750    95169059.993  
  22988365.352   120804660.915    22988372.848    94133590.147  
  20484301.563   107645805.538    20484306.930    83879877.592  
  23479516.031   123385751.442                                  
  21974940.797   115479366.180    21974946.641    89983775.221  
 21  1  7 23  2 45.0000000  0  9G30G 8G28G 5G 9G27G 7G13G14
  20691794.250   108736220.235    20691802.086    84729519.261  
  21392047.570   112415981.905    21392055.977    87596956.816  
  22383214.383   117624619.815                                  
  23917210.531   125685662.632    23917219.168    97937020.320  
  23241933.828   122137092.068    23241940.387    95171895.078  
  22988829.305   120807097.569    22988836.184    94135488.841  
  20484406.906   107646358.292    20484412.383    83880308.308  
  23478896.531   123382494.040                                  
  21974411.703   115476582.533    21974417.355    89981606.145  
 21  1  7 23  2 46.0000000  0  9G30G 8G28G 5G 9G27G 7G13G14
  20691539.852   108734884.131    20691547.738    84728478.136  
  21392050.766   112415997.328    21392059.391    87596968.836  
  22382701.453   117621923.247                                  
  23917533.594   125687353.176    23917540.629    97938337.622  
  23242625.766   122140730.676    23242633.188    95174730.358  
  22989292.414   120809534.726    22989300.480    94137387.927  
  20484511.945   107646911.505    20484517.680    83880739.380  
  23478277.047   123379236.992                                  
  21973882.109   115473799.249    21973887.594    89979437.359  
 21  1  7 23  2 47.0000000  0  9G30G 8G28G 5G 9G27G 7G13G14
  20691286.086   108733548.399    20691293.156    84727437.310  
  21392053.820   112416013.427    21392062.043    87596981.379  
  22382188.109   117619226.973                                  
  23917857.000   125689044.252    23917862.824    97939655.337  
  23243318.039   122144369.481    23243325.250    95177565.790  
  22989756.281   120811972.455    22989763.949    94139287.455  
  20484617.617   107647465.121    20484622.781    83881170.773  
  23477656.422   123375980.223                                  
  21973352.422   115471016.313    21973357.832    89977268.840  
 21  1  7 23  2 48.0000000  0  9G30G 8G28G 5G 9G27G 7G13G14
  20691031.297   108732213.047    20691039.070    84726396.778  
  21392057.039   112416030.257    21392065.348    87596994.493  
  22381674.844   117616531.030                                  
  23918179.406   125690735.821    23918185.172    97940973.439  
  23244010.656   122148008.493    23244018.133    95180401.381  
  22990220.766   120814410.716    22990228.246    94141187.395  
  20484723.203   107648019.155    20484727.828    83881602.484  
  23477037.508   123372723.743                                  
  21972822.563   115468233.694    21972828.414    89975100.566  
 21  1  7 23  2 49.0000000  0  9G30G 8G28G 5G 9G27G 7G13G14
  20690777.586   108730878.103    20690785.184    84725356.555  
  21392060.195   112416047.799    21392068.352    87597008.160  
  22381162.805   117613835.384                                  
  23918500.523   125692427.889    23918507.211    97942291.935  
  23244702.898   122151647.779    23244710.625    95183237.188  
  22990684.547   120816849.542    22990691.613    94143087.779  
  20484828.789   107648573.595    20484834.066    83882034.518  
  23476417.781   123369467.571                                  
  21972293.398   115465451.436    21972299.184    89972932.571  
 21  1  7 23  2 50.0000000  0  9G30G 8G28G 5G 9G27G 7G13G14
  20690523.172   108729543.569    20690531.313    84724316.658  
  21392063.773   112416066.035    21392072.203    87597022.370  
  22380649.250   117611140.082                                  
  23918821.531   125694120.515    23918828.996    97943610.869  
  23245395.719   122155287.246    23245402.918    95186073.132  
  22991148.766   120819288.897    22991156.461    94144988.576  
  20484934.578   107649128.477    20484939.051    83882466.894  
  23475797.828   123366211.683                                  
  21971763.867   115462669.514    21971769.820    89970764.842  
 21  1  7 23  2 51.0000000  0  9G30G 8G28G 5G 9G27G 7G13G14
  20690269.914   108728209.414    20690277.246    84723277.063  
  21392067.625   112416085.002    21392075.781    87597037.150  
  22380136.961   117608445.070                                  
  23919142.508   125695813.701    23919151.004    97944930.237  
  23246088.195   122158926.996    23246095.609    95188909.301  
  22991613.125   120821728.830    22991620.434    94146889.824  
  20485040.125   107649683.782    20485045.016    83882899.599  
  23475178.508   123362956.123                                  
  21971234.313   115459887.935    21971240.516    89968597.377  
 21  1  7 23  2 52.0000000  0  9G30G 8G28G 5G 9G27G 7G13G14
  20690015.922   108726875.637    20690023.531    84722237.754  
  21392071.172   112416104.687    21392079.090    87597052.492  
  22379623.992   117605750.398                                  
  23919465.859   125697507.376    23919473.121    97946249.990  
  23246780.805   122162566.933    23246788.109    95191745.613  
  22992078.492   120824169.297    22992084.969    94148791.483  
  20485145.727   107650239.509    20485150.879    83883332.637  
  23474559.023   123359700.858                                  
  21970705.430   115457106.674    21970711.445    89966430.161  
 21  1  7 23  2 53.0000000  0  9G30G 8G28G 5G 9G27G 7G13G14
  20689762.305   108725542.287    20689769.715    84721198.783  
  21392075.172   112416125.091    21392083.250    87597068.386  
  22379110.867   117603056.049                                  
  23919788.961   125699201.552    23919795.531    97947570.122  
  23247473.320   122166207.139    23247480.945    95194582.138  
  22992542.688   120826610.309    22992549.344    94150693.575  
  20485251.578   107650795.664    20485256.547    83883765.998  
  23473939.508   123356445.871                                  
  21970176.125   115454325.809    21970181.977    89964263.254  
 21  1  7 23  2 54.0000000  0  9G30G 8G28G 5G 9G27G 7G13G14
  20689508.492   108724209.317    20689516.414    84720160.106  
  21392078.859   112416146.202    21392086.855    87597084.837  
  22378598.109   117600362.007                                  
  23920112.836   125700896.287    23920118.242    97948890.689  
  23248166.961   122169847.573    23248173.688    95197418.844  
  22993007.000   120829051.915    22993013.973    94152596.126  
  20485357.648   107651352.243    20485362.730    83884199.696  
  23473320.414   123353191.212                                  
  21969646.766   115451545.277    21969652.410    89962096.607  
 21  1  7 23  2 55.0000000  0  9G30G 8G28G 5G 9G27G 7G13G14
  20689255.234   108722876.713    20689262.410    84719121.716  
  21392083.391   112416167.984    21392091.512    87597101.813  
  22378085.266   117597668.216                                  
  23920435.461   125702591.489    23920442.039    97950211.626  
  23248858.609   122173488.212    23248866.512    95200255.698  
  22993471.344   120831494.005    22993479.004    94154499.052  
  20485463.242   107651909.225    20485468.547    83884633.712  
  23472700.430   123349936.813                                  
  21969118.023   115448765.039    21969123.840    89959930.193  
 21  1  7 23  2 56.0000000  0  9G30G 8G28G 5G 9G27G 7G13G14
  20689001.289   108721544.559    20689009.109    84718083.669  
  21392087.680   112416190.545    21392095.734    87597119.392  
  22377572.531   117594974.840                                  
  23920757.242   125704287.280    23920764.402    97951533.020  
  23249551.984   122177129.115    23249559.016    95203092.762  
  22993936.266   120833936.708    22993943.445    94156402.457  
  20485569.547   107652466.665    20485574.684    83885068.079  
  23472081.977   123346682.757                                  
  21968588.781   115445985.198    21968594.992    89957764.082  
 21  1  7 23  2 57.0000000  0  9G30G 8G28G 5G 9G27G 7G13G14
  20688747.930   108720212.754    20688755.441    84717045.898  
  21392092.320   112416213.798    21392100.465    87597137.509  
  22377060.703   117592281.720                                  
  23921078.523   125705983.644    23921087.035    97952854.859  
  23250245.180   122180770.202    23250252.285    95205929.972  
  22994400.813   120836379.907    22994408.512    94158306.248  
  20485675.531   107653024.505    20485680.418    83885502.758  
  23471462.711   123343428.963                                  
  21968059.961   115443205.671    21968066.191    89955598.218  
 21  1  7 23  2 58.0000000  0  9G30G 8G28G 5G 9G27G 7G13G14
  20688494.813   108718881.359    20688502.336    84716008.451  
  21392096.266   112416237.751    21392104.703    87597156.173  
  22376548.813   117589588.926                                  
  23921401.359   125707680.398    23921409.496    97954176.999  
  23250938.211   122184411.569    23250945.234    95208767.400  
  22994865.820   120838823.671    22994873.645    94160210.478  
  20485782.039   107653582.764    20485786.637    83885937.764  
  23470843.305   123340175.476                                  
  21967530.898   115440426.463    21967536.676    89953432.603  
 21  1  7 23  2 59.0000000  0  9G30G 8G28G 5G 9G27G 7G13G14
  20688241.156   108717550.371    20688249.090    84714971.312  
  21392100.984   112416262.446    21392109.352    87597175.412  
  22376035.852   117586896.441                                  
  23921725.633   125709377.727    23921732.246    97955499.591  
  23251630.563   122188053.128    23251637.883    95211604.976  
  22995330.859   120841268.012    22995338.473    94162115.157  
  20485888.320   107654141.460    20485893.375    83886373.112  
  23470224.688   123336922.322                                  
  21967002.414   115437647.638    21967008.086    89951267.281  
 21  1  7 23  3  0.0000000  0  9G30G 8G28G 5G 9G27G 7G13G14
  20687988.344   108716219.780    20687995.402    84713934.491  
  21392106.180   112416287.845    21392114.203    87597195.207  
  22375523.359   117584204.314                                  
  23922049.219   125711075.599    23922054.891    97956822.609  
  23252323.836   122191694.958    23252330.699    95214442.768  
  22995796.672   120843712.896    22995803.926    94164020.264  
  20485994.766   107654700.604    20485999.414    83886808.807  
  23469605.414   123333669.478                                  
  21966473.477   115434869.169    21966479.414    89949102.240  
 21  1  7 23  3  1.0000000  0  9G30G 8G28G 5G 9G27G 7G13G14
  20687735.258   108714889.563    20687742.422    84712897.963  
  21392110.969   112416313.898    21392119.098    87597215.506  
  22375011.242   117581512.450                                  
  23922372.797   125712773.981    23922378.832    97958146.026  
  23253017.570   122195336.968    23253023.734    95217280.697  
  22996262.031   120846158.292    22996269.156    94165925.765  
  20486101.398   107655260.107    20486106.164    83887244.790  
  23468986.531   123330416.868                                  
  21965944.680   115432090.997    21965950.805    89946937.433  
 21  1  7 23  3  2.0000000  0  9G30G 8G28G 5G 9G27G 7G13G14
  20687481.992   108713559.772    20687489.313    84711861.761  
  21392116.414   112416340.708    21392124.168    87597236.398  
  22374499.086   117578820.935                                  
  23922695.266   125714472.862    23922702.055    97959469.832  
  23253710.141   122198979.256    23253717.254    95220118.845  
  22996727.539   120848604.277    22996734.625    94167831.726  
  20486207.820   107655820.074    20486212.738    83887681.127  
  23468367.500   123327164.606                                  
  21965416.383   115429313.208    21965422.270    89944772.920  
 21  1  7 23  3  3.0000000  0  9G30G 8G28G 5G 9G27G 7G13G14
  20687229.188   108712230.338    20687236.949    84710825.835  
  21392121.102   112416368.217    21392129.270    87597257.836  
  22373986.992   117576129.698                                  
  23923018.172   125716172.267    23923026.016    97960794.048  
  23254402.695   122202621.737    23254409.973    95222957.148  
  22997192.898   120851050.759    22997200.504    94169738.081  
  20486313.852   107656380.450    20486319.273    83888117.786  
  23467748.578   123323912.630                                  
  21964887.977   115426535.722    21964893.551    89942608.648  
 21  1  7 23  3  4.0000000  0  9G30G 8G28G 5G 9G27G 7G13G14
  20686975.992   108710901.328    20686983.914    84709790.243  
  21392126.891   112416396.470    21392134.867    87597279.852  
  22373474.461   117573438.811                                  
  23923340.773   125717872.237    23923349.242    97962118.695  
  23255096.367   122206264.444    23255103.594    95225795.618  
  22997658.172   120853497.827    22997666.035    94171644.887  
  20486421.188   107656941.256    20486425.938    83888554.780  
  23467130.086   123320660.936                                  
  21964359.359   115423758.603    21964365.148    89940444.660  
 21  1  7 23  3  5.0000000  0  9G30G 8G28G 5G 9G27G 7G13G14
  20686723.031   108709572.746    20686731.266    84708754.996  
  21392132.273   112416425.469    21392140.109    87597302.458  
  22372963.148   117570748.260                                  
  23923664.633   125719572.680    23923672.633    97963443.705  
  23255789.719   122209907.440    23255797.230    95228634.293  
  22998124.367   120855945.595    22998131.949    94173552.220  
  20486527.453   107657502.529    20486532.945    83888992.139  
  23466511.313   123317409.569                                  
  21963831.000   115420981.864    21963836.688    89938280.938  
 21  1  7 23  3  6.0000000  0  9G30G 8G28G 5G 9G27G 7G13G14
  20686470.430   108708244.493    20686477.789    84707719.996  
  21392137.961   112416455.105    21392145.887    87597325.551  
  22372450.859   117568057.948                                  
  23923989.906   125721273.676    23923995.883    97964769.123  
  23256482.969   122213550.602    23256489.984    95231473.094  
  22998590.539   120858393.642    22998597.590    94175459.801  
  20486634.445   107658064.175    20486639.828    83889429.784  
  23465892.688   123314158.479                                  
  21963302.492   115418205.390    21963308.559    89936117.421  
 21  1  7 23  3  7.0000000  0  9G30G 8G28G 5G 9G27G 7G13G14
  20686218.008   108706916.652    20686225.391    84706685.321  
  21392143.414   112416485.489    21392152.043    87597349.228  
  22371938.953   117565368.006                                  
  23924314.031   125722975.272    23924319.285    97966095.020  
  23257176.102   122217194.013    23257183.012    95234312.108  
  22999056.758   120860842.384    22999063.961    94177367.925  
  20486741.344   107658626.298    20486747.238    83889867.799  
  23465274.008   123310907.751                                  
  21962774.383   115415429.342    21962780.137    89933954.264  
 21  1  7 23  3  8.0000000  0  9G30G 8G28G 5G 9G27G 7G13G14
  20685965.063   108705589.232    20685972.742    84705650.955  
  21392149.578   112416516.584    21392158.016    87597373.449  
  22371427.039   117562678.404                                  
  23924636.797   125724677.226    23924643.129    97967421.242  
  23257869.406   122220837.654    23257876.867    95237151.335  
  22999522.109   120863291.635    22999529.742    94179276.426  
  20486848.977   107659188.743    20486853.949    83890306.063  
  23464655.453   123307657.309                                  
  21962246.680   115412653.592    21962251.918    89931791.380  
 21  1  7 23  3  9.0000000  0  9G30G 8G28G 5G 9G27G 7G13G14
  20685712.594   108704262.160    20685720.414    84704616.864  
  21392155.375   112416548.384    21392163.820    87597398.225  
  22370915.195   117559989.062                                  
  23924960.945   125726379.770    23924967.730    97968747.929  
  23258563.102   122224481.503    23258570.461    95239990.722  
  22999988.281   120865741.446    22999995.898    94181185.373  
  20486955.906   107659751.659    20486961.008    83890744.697  
  23464036.711   123304407.115                                  
  21961718.359   115409878.194    21961723.949    89929628.764  
 21  1  7 23  3 10.0000000  0  9G30G 8G28G 5G 9G27G 7G13G14
  20685460.109   108702935.535    20685468.164    84703583.127  
  21392161.813   112416580.877    21392169.836    87597423.542  
  22370403.750   117557300.096                                  
  23925284.258   125728082.845    23925291.797    97970075.019  
  23259256.125   122228125.607    23259263.477    95242830.295  
  23000454.453   120868191.790    23000462.102    94183094.735  
  20487063.102   107660315.016    20487067.922    83891183.679  
  23463418.289   123301157.287                                  
  21961189.992   115407103.152    21961195.793    89927466.412  
 21  1  7 23  3 11.0000000  0  9G30G 8G28G 5G 9G27G 7G13G14
  20685207.992   108701609.277    20685215.547    84702549.682  
  21392168.063   112416614.102    21392176.336    87597449.426  
  22369892.711   117554611.404                                  
  23925607.797   125729786.461    23925615.824    97971402.518  
  23259950.078   122231769.953    23259956.988    95245670.045  
  23000921.141   120870642.694    23000928.543    94185004.526  
  20487170.344   107660878.783    20487175.266    83891622.977  
  23462800.391   123297907.689                                  
  21960661.828   115404328.432    21960667.766    89925304.292  
 21  1  7 23  3 12.0000000  0  9G30G 8G28G 5G 9G27G 7G13G14
  20684955.242   108700283.416    20684962.949    84701516.541  
  21392174.766   112416648.021    21392182.848    87597475.861  
  22369380.500   117551923.027                                  
  23925933.195   125731490.549    23925940.410    97972730.368  
  23260643.547   122235414.497    23260650.590    95248509.950  
  23001387.516   120873094.144    23001395.020    94186914.747  
  20487277.789   107661442.986    20487282.906    83892062.613  
  23462181.102   123294658.478                                  
  21960134.188   115401554.066    21960140.105    89923142.447  
 21  1  7 23  3 13.0000000  0  9G30G 8G28G 5G 9G27G 7G13G14
  20684703.531   108698957.962    20684710.867    84700483.725  
  21392181.227   112416682.698    21392189.629    87597502.880  
  22368869.398   117549234.984                                  
  23926258.414   125733195.229    23926265.383    97974058.684  
  23261337.609   122239059.289    23261344.465    95251350.037  
  23001854.203   120875546.167    23001861.797    94188825.409  
  20487385.055   107662007.617    20487390.055    83892502.584  
  23461563.953   123291409.491                                  
  21959605.516   115398780.059    21959611.680    89920980.880  
 21  1  7 23  3 14.0000000  0  9G30G 8G28G 5G 9G27G 7G13G14
  20684451.133   108697632.907    20684458.949    84699451.217  
  21392187.680   112416718.088    21392195.801    87597530.462  
  22368358.078   117546547.243                                  
  23926583.547   125734900.391    23926589.555    97975387.380  
  23262030.398   122242704.365    23262038.266    95254190.354  
  23002321.281   120877998.722    23002328.332    94190736.490  
  20487492.719   107662572.677    20487497.555    83892942.891  
  23460945.523   123288160.864                                  
  21959078.641   115396006.379    21959084.074    89918819.564  
 21  1  7 23  3 15.0000000  0  9G30G 8G28G 5G 9G27G 7G13G14
  20684199.258   108696308.263    20684207.172    84698419.028  
  21392194.734   112416754.165    21392203.070    87597558.572  
  22367846.586   117543859.819                                  
  23926906.922   125736606.062    23926914.063    97976716.482  
  23262724.586   122246349.578    23262731.738    95257030.774  
  23002787.438   120880451.848    23002795.535    94192648.017  
  20487600.469   107663138.158    20487605.328    83893383.526  
  23460327.039   123284912.501                                  
  21958550.539   115393233.051    21958556.695    89916658.528  
 21  1  7 23  3 16.0000000  0  9G30G 8G28G 5G 9G27G 7G13G14
  20683947.430   108694983.969    20683954.598    84697387.112  
  21392201.609   112416790.933    21392209.535    87597587.222  
  22367334.406   117541172.698                                  
  23927230.734   125738312.247    23927238.656    97978045.981  
  23263418.250   122249995.048    23263425.465    95259871.401  
  23003254.781   120882905.476    23003262.699    94194559.934  
  20487707.586   107663704.031    20487712.820    83893824.463  
  23459709.328   123281664.452                                  
  21958022.711   115390460.046    21958029.051    89914497.741  
 21  1  7 23  3 17.0000000  0  9G30G 8G28G 5G 9G27G 7G13G14
  20683695.383   108693660.121    20683702.875    84696355.544  
  21392208.906   112416828.490    21392217.418    87597616.488  
  22366823.414   117538485.930                                  
  23927556.156   125740019.010    23927563.348    97979375.929  
  23264111.383   122253640.781    23264118.867    95262712.233  
  23003721.477   120885359.701    23003729.395    94196472.317  
  20487815.398   107664270.395    20487820.445    83894265.785  
  23459091.047   123278416.748                                  
  21957495.148   115387687.452    21957501.492    89912337.281  
 21  1  7 23  3 18.0000000  0  9G30G 8G28G 5G 9G27G 7G13G14
  20683443.320   108692336.625    20683450.887    84695324.243  
  21392215.844   112416866.675    21392224.426    87597646.245  
  22366312.672   117535799.432                                  
  23927881.078   125741726.242    23927888.430    97980706.235  
  23264805.773   122257286.686    23264812.762    95265553.197  
  23004188.117   120887814.403    23004196.570    94198385.077  
  20487923.484   107664837.140    20487928.613    83894707.403  
  23458472.883   123275169.290                                  
  21956967.391   115384915.121    21956973.664    89910177.028  
 21  1  7 23  3 19.0000000  0  9G30G 8G28G 5G 9G27G 7G13G14
  20683191.563   108691013.543    20683199.305    84694293.272  
  21392223.773   112416905.625    21392231.570    87597676.593  
  22365800.914   117533113.264                                  
  23928205.961   125743434.022    23928213.730    97982036.963  
  23265499.438   122260932.877    23265506.813    95268394.382  
  23004655.742   120890269.725    23004663.363    94200298.314  
  20488031.500   107665404.316    20488036.246    83895149.361  
  23457855.141   123271922.190                                  
  21956440.336   115382143.177    21956445.930    89908017.078  
 21  1  7 23  3 20.0000000  0  9G30G 8G28G 5G 9G27G 7G13G14
  20682939.961   108689690.858    20682947.480    84693262.607  
  21392231.055   112416945.284    21392239.875    87597707.500  
  22365290.289   117530427.431                                  
  23928532.156   125745142.272    23928538.648    97983368.064  
  23266193.141   122264579.232    23266200.445    95271235.696  
  23005123.547   120892725.587    23005130.875    94202211.973  
  20488139.781   107665971.901    20488144.395    83895591.637  
  23457237.359   123268675.355                                  
  21955912.656   115379371.561    21955918.492    89905857.381  
 21  1  7 23  3 21.0000000  0  9G30G 8G28G 5G 9G27G 7G13G14
  20682688.023   108688368.564    20682695.750    84692232.246  
  21392238.711   112416985.676    21392246.891    87597738.972  
  22364779.430   117527741.910                                  
  23928856.484   125746851.074    23928863.301    97984699.599  
  23266886.961   122268225.845    23266894.586    95274077.218  
  23005590.055   120895181.959    23005598.094    94204126.035  
  20488247.594   107666539.932    20488252.434    83896034.256  
  23456619.906   123265428.831                                  
  21955385.188   115376600.284    21955391.656    89903697.942  
 21  1  7 23  3 22.0000000  0  9G30G 8G28G 5G 9G27G 7G13G14
  20682436.578   108687046.677    20682444.516    84691202.207  
  21392246.914   112417026.789    21392254.996    87597771.010  
  22364268.109   117525056.717                                  
  23929181.789   125748560.399    23929188.309    97986031.546  
  23267580.711   122271872.709    23267588.707    95276918.925  
  23006058.344   120897638.907    23006065.813    94206040.535  
  20488355.953   107667108.391    20488360.730    83896477.212  
  23456001.922   123262182.637                                  
  21954858.375   115373829.361    21954864.242    89901538.782  
 21  1  7 23  3 23.0000000  0  9G30G 8G28G 5G 9G27G 7G13G14
  20682185.398   108685725.152    20682192.672    84690172.448  
  21392254.516   112417068.554    21392262.875    87597803.553  
  22363757.305   117522371.808                                  
  23929506.508   125750270.167    23929513.738    97987363.836  
  23268274.063   122275519.733    23268282.266    95279760.758  
  23006526.125   120900096.383    23006533.762    94207955.452  
  20488464.438   107667677.228    20488469.242    83896920.462  
  23455384.258   123258936.668                                  
  21954330.844   115371058.761    21954337.164    89899379.874  
 21  1  7 23  3 24.0000000  0  9G30G 8G28G 5G 9G27G 7G13G14
  20681933.492   108684404.014    20681941.691    84689142.984  
  21392262.930   112417111.049    21392270.730    87597836.668  
  22363247.102   117519687.178                                  
  23929832.547   125751980.514    23929838.734    97988696.575  
  23268968.820   122279167.009    23268976.340    95282602.791  
  23006993.922   120902554.370    23007001.656    94209870.767  
  20488572.281   107668246.503    20488577.324    83897364.053  
  23454766.789   123255691.050                                  
  21953803.898   115368288.490    21953809.609    89897221.220  
 21  1  7 23  3 25.0000000  0  9G30G 8G28G 5G 9G27G 7G13G14
  20681682.148   108683083.324    20681690.402    84688113.875  
  21392271.188   112417154.291    21392278.988    87597870.361  
  22362735.805   117517002.951                                  
  23930157.898   125753691.456    23930164.168    97990029.775  
  23269663.484   122282814.565    23269670.648    95285445.037  
  23007461.531   120905012.954    23007468.852    94211786.551  
  20488680.578   107668816.249    20488685.641    83897808.012  
  23454148.977   123252445.750                                  
  21953276.781   115365518.621    21953282.172    89895062.884  
 21  1  7 23  3 26.0000000  0  9G30G 8G28G 5G 9G27G 7G13G14
  20681431.320   108681762.994    20681438.684    84687085.048  
  21392279.813   112417198.197    21392287.711    87597904.574  
  22362224.703   117514319.002                                  
  23930484.414   125755402.822    23930489.984    97991363.303  
  23270357.578   122286462.292    23270365.031    95288287.424  
  23007929.781   120907472.088    23007937.250    94213702.754  
  20488789.086   107669386.361    20488793.914    83898252.255  
  23453531.344   123249200.738                                  
  21952750.000   115362749.063    21952755.539    89892904.794  
 21  1  7 23  3 27.0000000  0  9G30G 8G28G 5G 9G27G 7G13G14
  20681180.219   108680443.081    20681188.000    84686056.550  
  21392287.867   112417242.870    21392296.207    87597939.382  
  22361714.211   117511635.384                                  
  23930809.750   125757114.750    23930816.402    97992697.274  
  23271051.969   122290110.293    23271058.898    95291130.020  
  23008398.070   120909931.765    23008405.578    94215619.389  
  20488897.664   107669956.936    20488902.789    83898696.862  
  23452914.469   123245956.061                                  
  21952222.805   115359979.877    21952228.148    89890746.987  
 21  1  7 23  3 28.0000000  0  9G30G 8G28G 5G 9G27G 7G13G14
  20680928.742   108679123.585    20680936.695    84685028.368  
  21392296.680   112417288.252    21392304.617    87597974.748  
  22361203.516   117508952.103                                  
  23931135.891   125758827.203    23931142.121    97994031.653  
  23271746.203   122293758.515    23271753.070    95293972.791  
  23008865.180   120912391.994    23008873.496    94217536.448  
  20489006.406   107670527.921    20489011.555    83899141.780  
  23452296.273   123242711.678                                  
  21951695.539   115357211.012    21951701.168    89888589.427  
 21  1  7 23  3 29.0000000  0  9G30G 8G28G 5G 9G27G 7G13G14
  20680677.938   108677804.420    20680685.820    84684000.447  
  21392305.055   112417334.322    21392313.723    87598010.643  
  22360693.086   117506269.062                                  
  23931461.563   125760540.137    23931468.445    97995366.411  
  23272440.125   122297406.932    23272447.578    95296815.713  
  23009333.477   120914852.726    23009341.715    94219453.900  
  20489115.102   107671099.318    20489120.254    83899587.026  
  23451679.227   123239467.567                                  
  21951168.961   115354442.476    21951174.863    89886432.128  
 21  1  7 23  3 30.0000000  0  9G30G 8G28G 5G 9G27G 7G13G14
  20680426.984   108676485.687    20680434.598    84682972.865  
  21392314.242   112417381.100    21392322.313    87598047.098  
  22360182.398   117503586.362                                  
  23931787.469   125762253.581    23931794.371    97996701.564  
  23273134.633   122301055.577    23273142.074    95299658.807  
  23009801.305   120917314.035    23009809.836    94221371.805  
  20489223.836   107671671.140    20489228.902    83900032.602  
  23451061.695   123236223.755                                  
  21950642.273   115351674.285    21950647.840    89884275.098  
 21  1  7 23  3 31.0000000  0  9G30G 8G28G 5G 9G27G 7G13G14
  20680175.906   108675167.330    20680183.672    84681945.571  
  21392323.383   112417428.588    21392331.301    87598084.096  
  22359672.180   117500904.013                                  
  23932113.781   125763967.579    23932120.902    97998037.149  
  23273829.219   122304704.484    23273836.309    95302502.116  
  23010270.469   120919775.889    23010278.496    94223290.131  
  20489332.672   107672243.397    20489337.645    83900478.517  
  23450444.414   123232980.275                                  
  21950115.359   115348906.453    21950121.254    89882118.339  
 21  1  7 23  3 32.0000000  0  9G30G 8G28G 5G 9G27G 7G13G14
  20679925.344   108673849.439    20679932.910    84680918.645  
  21392332.367   112417476.834    21392340.566    87598121.693  
  22359162.102   117498221.995                                  
  23932440.617   125765682.147    23932446.336    97999373.178  
  23274523.117   122308353.618    23274530.660    95305345.598  
  23010738.734   120922238.324    23010746.730    94225208.907  
  20489442.109   107672816.090    20489446.922    83900924.773  
  23449827.844   123229737.129                                  
  21949588.781   115346139.013    21949595.000    89879961.896  
 21  1  7 23  3 33.0000000  0  9G30G 8G28G 5G 9G27G 7G13G14
  20679674.445   108672531.879    20679682.000    84679891.973  
  21392341.891   112417525.760    21392350.066    87598159.817  
  22358650.961   117495540.245                                  
  23932766.906   125767397.125    23932772.574    98000709.520  
  23275217.547   122312002.942    23275225.328    95308189.235  
  23011208.117   120924701.264    23011215.566    94227128.076  
  20489550.961   107673389.174    20489556.105    83901371.326  
  23449210.367   123226494.235                                  
  21949062.375   115343371.873    21949068.383    89877805.686  
 21  1  7 23  3 34.0000000  0  9G30G 8G28G 5G 9G27G 7G13G14
  20679423.695   108671214.740    20679431.656    84678865.631  
  21392351.313   112417575.371    21392358.980    87598198.475  
  22358141.500   117492858.867                                  
  23933093.148   125769112.696    23933098.734    98002046.333  
  23275911.883   122315652.508    23275919.781    95311033.050  
  23011677.109   120927164.768    23011684.117    94229047.689  
  20489660.469   107673962.719    20489665.047    83901818.247  
  23448593.063   123223251.660                                  
  21948535.438   115340605.066    21948541.785    89875649.737  
 21  1  7 23  3 35.0000000  0  9G30G 8G28G 5G 9G27G 7G13G14
  20679172.953   108669897.963    20679181.219    84677839.576  
  21392360.813   112417625.704    21392368.965    87598237.695  
  22357630.727   117490177.747                                  
  23933419.148   125770828.755    23933425.328    98003383.523  
  23276606.445   122319302.286    23276613.949    95313877.027  
  23012145.781   120929628.791    23012153.297    94230967.706  
  20489769.359   107674536.682    20489774.133    83902265.492  
  23447975.906   123220009.391                                  
  21948008.633   115337838.584    21948015.188    89873494.040  
 21  1  7 23  3 36.0000000  0  9G30G 8G28G 5G 9G27G 7G13G14
  20678922.953   108668581.635    20678930.262    84676813.860  
  21392370.563   112417676.767    21392378.570    87598277.487  
  22357120.250   117487496.965                                  
  23933745.703   125772545.346    23933752.629    98004721.117  
  23277301.391   122322952.323    23277308.617    95316721.211  
  23012614.945   120932093.368    23012622.504    94232888.156  
  20489878.742   107675111.073    20489883.379    83902713.069  
  23447359.227   123216767.414                                  
  21947483.180   115335072.478    21947488.809    89871338.632  
 21  1  7 23  3 37.0000000  0  9G30G 8G28G 5G 9G27G 7G13G14
  20678672.563   108667265.675    20678680.094    84675788.440  
  21392380.422   112417728.514    21392388.461    87598317.810  
  22356611.047   117484816.496                                  
  23934072.117   125774262.456    23934079.371    98006059.120  
  23277995.539   122326602.565    23278002.988    95319565.551  
  23013084.016   120934558.499    23013091.613    94234809.036  
  20489988.234   107675685.883    20489992.891    83903160.978  
  23446743.211   123213525.743                                  
  21946956.742   115332306.716    21946962.484    89869183.494  
 21  1  7 23  3 38.0000000  0  9G30G 8G28G 5G 9G27G 7G13G14
  20678422.078   108665950.137    20678429.723    84674763.347  
  21392390.570   112417781.012    21392398.785    87598358.715  
  22356100.344   117482136.384                                  
  23934399.336   125775980.093    23934406.039    98007397.533  
  23278690.398   122330253.031    23278698.016    95322410.068  
  23013553.484   120937024.206    23013560.645    94236730.370  
  20490097.453   107676261.139    20490102.395    83903609.223  
  23446126.008   123210284.421                                  
  21946430.203   115329541.323    21946436.191    89867028.645  
 21  1  7 23  3 39.0000000  0  9G30G 8G28G 5G 9G27G 7G13G14
  20678171.766   108664634.924    20678179.336    84673738.504  
  21392400.484   112417834.149    21392408.809    87598400.123  
  22355590.422   117479456.517                                  
  23934727.180   125777698.204    23934733.188    98008736.322  
  23279384.797   122333903.689    23279392.551    95325254.739  
  23014022.516   120939490.373    23014030.176    94238652.060  
  20490206.852   107676836.764    20490211.969    83904057.761  
  23445508.875   123207043.334                                  
  21945904.469   115326776.204    21945910.180    89864874.002  
 21  1  7 23  3 40.0000000  0  9G30G 8G28G 5G 9G27G 7G13G14
  20677921.633   108663320.176    20677929.480    84672714.025  
  21392410.992   112417888.078    21392419.336    87598442.147  
  22355080.344   117476777.019                                  
  23935054.195   125779416.876    23935061.074    98010075.554  
  23280079.797   122337554.630    23280087.238    95328099.629  
  23014491.945   120941957.165    23014499.250    94240574.239  
  20490316.695   107677412.869    20490321.527    83904506.679  
  23444892.289   123203802.611                                  
  21945378.258   115324011.497    21945384.223    89862719.687  
 21  1  7 23  3 41.0000000  0  9G30G 8G28G 5G 9G27G 7G13G14
  20677671.594   108662005.815    20677679.215    84671689.842  
  21392421.289   112417942.728    21392429.535    87598484.731  
  22354570.258   117474097.855                                  
  23935381.055   125781136.093    23935387.594    98011415.205  
  23280774.234   122341205.769    23280782.004    95330944.677  
  23014961.258   120944424.474    23014969.035    94242496.819  
  20490426.578   107677989.369    20490431.371    83904955.895  
  23444275.867   123200562.160                                  
  21944851.648   115321247.134    21944858.277    89860565.639  
 21  1  7 23  3 42.0000000  0  9G30G 8G28G 5G 9G27G 7G13G14
  20677421.461   108660691.825    20677429.176    84670665.960  
  21392431.773   112417998.041    21392439.461    87598527.829  
  22354060.617   117471418.964                                  
  23935707.781   125782855.784    23935714.719    98012755.223  
  23281469.500   122344857.163    23281477.258    95333789.922  
  23015430.938   120946892.345    23015438.824    94244419.833  
  20490536.516   107678566.305    20490541.246    83905405.453  
  23443659.109   123197322.028                                  
  21944326.188   115318483.093    21944332.160    89858411.843  
 21  1  7 23  3 43.0000000  0  9G30G 8G28G 5G 9G27G 7G13G14
  20677171.227   108659378.275    20677179.211    84669642.411  
  21392442.586   112418054.101    21392450.129    87598571.516  
  22353551.234   117468740.430                                  
  23936035.469   125784576.017    23936042.520    98014095.661  
  23282163.797   122348508.784    23282171.871    95336635.337  
  23015901.117   120949360.761    23015908.656    94246343.280  
  20490646.328   107679143.676    20490651.031    83905855.354  
  23443042.781   123194082.210                                  
  21943800.156   115315719.407    21943806.250    89856258.325  
 21  1  7 23  3 44.0000000  0  9G30G 8G28G 5G 9G27G 7G13G14
  20676921.219   108658065.073    20676929.164    84668619.139  
  21392453.438   112418110.857    21392461.125    87598615.738  
  22353042.195   117466062.205                                  
  23936363.156   125786296.753    23936369.859    98015436.491  
  23282858.859   122352160.627    23282867.063    95339480.928  
  23016370.672   120951829.691    23016377.723    94248267.122  
  20490755.938   107679721.453    20490760.641    83906305.575  
  23442426.539   123190842.698                                  
  21943274.859   115312956.069    21943280.164    89854105.075  
 21  1  7 23  3 45.0000000  0  9G30G 8G28G 5G 9G27G 7G13G14
  20676671.766   108656752.292    20676679.875    84667596.188  
  21392464.250   112418168.333    21392472.332    87598660.528  
  22352531.734   117463384.290                                  
  23936690.977   125788018.012    23936697.055    98016777.732  
  23283554.180   122355812.696    23283562.078    95342326.692  
  23016840.117   120954299.173    23016847.988    94250191.399  
  20490866.406   107680299.636    20490870.773    83906756.104  
  23441810.633   123187603.477                                  
  21942748.430   115310193.068    21942754.250    89851952.086  
 21  1  7 23  3 46.0000000  0  9G30G 8G28G 5G 9G27G 7G13G14
  20676421.930   108655439.927    20676429.883    84666573.571  
  21392475.188   112418226.544    21392483.141    87598705.884  
  22352022.539   117460706.693                                  
  23937018.320   125789739.809    23937025.430    98018119.392  
  23284248.961   122359464.988    23284256.891    95345172.633  
  23017310.516   120956769.217    23017318.086    94252116.108  
  20490975.859   107680878.281    20490981.039    83907206.996  
  23441193.625   123184364.586                                  
  21942222.898   115307430.438    21942228.699    89849799.386  
 21  1  7 23  3 47.0000000  0  9G30G 8G28G 5G 9G27G 7G13G14
  20676172.344   108654127.937    20676180.199    84665551.237  
  21392486.477   112418285.443    21392494.457    87598751.782  
  22351512.734   117458029.405                                  
  23937345.984   125791462.106    23937352.746    98019461.446  
  23284944.070   122363117.499    23284951.855    95348018.744  
  23017780.414   120959239.809    23017788.418    94254041.245  
  20491086.422   107681457.315    20491091.207    83907658.191  
  23440577.578   123181125.981                                  
  21941697.016   115304668.107    21941703.219    89847646.922  
 21  1  7 23  3 48.0000000  0  9G30G 8G28G 5G 9G27G 7G13G14
  20675922.820   108652816.367    20675930.445    84664529.240  
  21392497.875   112418345.093    21392505.773    87598798.265  
  22351003.477   117455352.457                                  
  23937673.867   125793184.942    23937680.953    98020803.919  
  23285639.313   122366770.247    23285646.496    95350865.040  
  23018250.492   120961710.980    23018258.688    94255966.830  
  20491196.352   107682036.807    20491201.500    83908109.747  
  23439961.391   123177887.702                                  
  21941171.203   115301906.180    21941177.098    89845494.770  
 21  1  7 23  3 49.0000000  0  9G30G 8G28G 5G 9G27G 7G13G14
  20675673.398   108651505.159    20675681.313    84663507.515  
  21392509.016   112418405.436    21392517.629    87598845.286  
  22350493.781   117452675.798                                  
  23938001.273   125794908.272    23938008.488    98022146.773  
  23286334.555   122370423.181    23286342.059    95353711.477  
  23018720.969   120964182.619    23018729.434    94257892.781  
  20491306.945   107682616.676    20491311.430    83908561.592  
  23439344.977   123174649.678                                  
  21940646.008   115299144.542    21940652.008    89843342.849  
 21  1  7 23  3 50.0000000  0  9G30G 8G28G 5G 9G27G 7G13G14
  20675424.172   108650194.379    20675431.707    84662486.133  
  21392520.750   112418466.477    21392528.867    87598892.851  
  22349985.227   117449999.490                                  
  23938329.680   125796632.128    23938336.793    98023490.032  
  23287029.156   122374076.379    23287037.262    95356558.122  
  23019191.133   120966654.870    23019199.777    94259819.206  
  20491417.602   107683197.002    20491422.180    83909013.792  
  23438728.289   123171412.000                                  
  21940120.664   115296383.289    21940126.313    89841191.228  
 21  1  7 23  3 51.0000000  0  9G30G 8G28G 5G 9G27G 7G13G14
  20675174.398   108648883.959    20675182.152    84661465.023  
  21392532.602   112418528.207    21392540.492    87598940.951  
  22349476.555   117447323.439                                  
  23938658.297   125798356.488    23938664.566    98024833.688  
  23287724.773   122377729.782    23287732.375    95359404.934  
  23019661.813   120969127.627    23019669.996    94261746.027  
  20491527.797   107683777.732    20491532.633    83909466.310  
  23438112.438   123168174.588                                  
  21939595.313   115293622.351    21939601.246    89839039.849  
 21  1  7 23  3 52.0000000  0  9G30G 8G28G 5G 9G27G 7G13G14
  20674925.008   108647573.985    20674932.848    84660444.261  
  21392544.383   112418590.718    21392552.422    87598989.660  
  22348967.070   117444647.799                                  
  23938986.477   125800081.395    23938992.953    98026177.774  
  23288420.273   122381383.436    23288427.824    95362251.938  
  23020132.875   120971600.958    23020140.555    94263673.301  
  20491638.500   107684358.918    20491642.961    83909919.185  
  23437496.367   123164937.557                                  
  21939070.125   115290861.800    21939075.605    89836888.766  
 21  1  7 23  3 53.0000000  0  9G30G 8G28G 5G 9G27G 7G13G14
  20674675.766   108646264.384    20674684.000    84659423.795  
  21392556.266   112418653.884    21392564.543    87599038.879  
  22348457.750   117441972.425                                  
  23939314.742   125801806.797    23939321.457    98027522.243  
  23289115.219   122385037.324    23289123.375    95365099.126  
  23020603.477   120974074.814    23020611.250    94265600.978  
  20491749.336   107684940.504    20491754.027    83910372.368  
  23436880.242   123161700.773                                  
  21938544.602   115288101.577    21938550.691    89834737.942  
 21  1  7 23  3 54.0000000  0  9G30G 8G28G 5G 9G27G 7G13G14
  20674426.789   108644955.186    20674434.336    84658403.643  
  21392568.148   112418717.767    21392576.598    87599088.658  
  22347948.391   117439297.378                                  
  23939642.367   125803532.723    23939649.754    98028867.124  
  23289810.758   122388691.420    23289818.262    95367946.476  
  23021074.680   120976549.222    23021082.109    94267529.091  
  20491859.500   107685522.532    20491865.070    83910825.895  
  23436264.945   123158464.335                                  
  21938019.125   115285341.691    21938025.391    89832587.380  
 21  1  7 23  3 55.0000000  0  9G30G 8G28G 5G 9G27G 7G13G14
  20674177.508   108643646.358    20674185.328    84657383.774  
  21392581.117   112418782.338    21392588.934    87599138.973  
  22347439.844   117436622.603                                  
  23939971.133   125805259.138    23939978.113    98030212.385  
  23290506.469   122392345.687    23290513.254    95370793.955  
  23021545.289   120979024.134    23021553.129    94269457.596  
  20491970.883   107686104.944    20491975.750    83911279.722  
  23435649.242   123155228.135                                  
  21937494.453   115282582.124    21937499.969    89830437.072  
 21  1  7 23  3 56.0000000  0  9G30G 8G28G 5G 9G27G 7G13G14
  20673928.609   108642337.951    20673936.840    84656364.238  
  21392593.344   112418847.669    21392601.363    87599189.884  
  22346931.141   117433948.203                                  
  23940300.039   125806986.097    23940306.727    98031558.069  
  23291201.438   122396000.220    23291209.039    95373641.645  
  23022016.711   120981499.637    23022024.164    94271386.557  
  20492081.703   107686687.800    20492086.441    83911733.888  
  23435033.203   123151992.287                                  
  21936969.688   115279822.938    21936975.055    89828287.064  
 21  1  7 23  3 57.0000000  0  9G30G 8G28G 5G 9G27G 7G13G14
  20673680.141   108641029.962    20673687.828    84655345.029  
  21392605.813   112418913.735    21392614.320    87599241.365  
  22346421.797   117431274.099                                  
  23940628.992   125808713.607    23940635.516    98032904.180  
  23291896.758   122399655.016    23291904.742    95376489.536  
  23022487.797   120983975.691    23022495.309    94273315.947  
  20492192.391   107687271.096    20492197.539    83912188.410  
  23434417.453   123148756.773                                  
  21936444.391   115277064.110    21936449.953    89826137.327  
 21  1  7 23  3 58.0000000  0  9G30G 8G28G 5G 9G27G 7G13G14
  20673430.797   108639722.347    20673438.789    84654326.105  
  21392618.516   112418980.482    21392625.926    87599293.371  
  22345912.789   117428600.326                                  
  23940958.383   125810441.584    23940964.398    98034250.658  
  23292592.703   122403310.026    23292600.078    95379337.591  
  23022958.680   120986452.287    23022967.137    94275245.763  
  20492303.711   107687854.817    20492308.473    83912643.257  
  23433801.750   123145521.555                                  
  21935919.047   115274305.603    21935925.500    89823987.842  
 21  1  7 23  3 59.0000000  0  9G30G 8G28G 5G 9G27G 7G13G14
  20673182.398   108638415.119    20673190.395    84653307.484  
  21392631.289   112419047.937    21392639.836    87599345.935  
  22345404.367   117425926.860                                  
  23941287.156   125812170.079    23941292.793    98035597.544  
  23293288.086   122406965.232    23293295.512    95382185.805  
  23023430.109   120988929.419    23023438.105    94277175.989  
  20492414.773   107688438.941    20492419.676    83913098.420  
  23433186.305   123142286.613                                  
  21935394.719   115271547.465    21935400.477    89821838.641  
 21  1  7 23  4  0.0000000  0  9G30G 8G28G 5G 9G27G 7G13G14
  20672933.797   108637108.312    20672941.578    84652289.191  
  21392644.211   112419116.125    21392652.496    87599399.070  
  22344895.375   117423253.724                                  
  23941615.578   125813899.127    23941622.211    98036944.857  
  23293984.492   122410620.667    23293991.313    95385034.192  
  23023902.117   120991407.071    23023909.449    94279106.630  
  20492525.891   107689023.510    20492530.777    83913553.926  
  23432569.633   123139051.989                                  
  21934869.617   115268789.670    21934875.266    89819689.712  
 21  1  7 23  4  1.0000000  0  9G30G 8G28G 5G 9G27G 7G13G14
  20672684.766   108635801.865    20672692.969    84651271.183  
  21392657.344   112419184.992    21392665.523    87599452.736  
  22344386.898   117420580.853                                  
  23941944.156   125815628.632    23941951.516    98038292.519  
  23294679.422   122414276.295    23294686.730    95387882.732  
  23024372.938   120993885.255    23024381.352    94281037.681  
  20492637.508   107689608.459    20492642.398    83914009.732  
  23431955.016   123135817.644                                  
  21934344.891   115266032.186    21934350.953    89817541.019  
 21  1  7 23  4  2.0000000  0  9G30G 8G28G 5G 9G27G 7G13G14
  20672436.594   108634495.891    20672444.242    84650253.541  
  21392670.906   112419254.618    21392679.047    87599506.987  
  22343878.273   117417908.374                                  
  23942272.742   125817358.736    23942280.656    98039640.644  
  23295375.438   122417932.216    23295382.461    95390731.505  
  23024845.102   120996364.034    23024852.875    94282969.198  
  20492748.742   107690193.890    20492753.750    83914465.912  
  23431339.469   123132583.681                                  
  21933820.070   115263275.096    21933826.000    89815392.638  
 21  1  7 23  4  3.0000000  0  9G30G 8G28G 5G 9G27G 7G13G14
  20672188.117   108633190.222    20672195.602    84649236.136  
  21392684.328   112419324.899    21392692.684    87599561.749  
  22343370.000   117415236.131                                  
  23942602.906   125819089.282    23942610.145    98040989.118  
  23296071.469   122421588.338    23296078.246    95393580.431  
  23025317.016   120998843.306    23025324.258    94284901.099  
  20492860.320   107690779.692    20492865.477    83914922.381  
  23430724.547   123129349.944                                  
  21933296.047   115260518.306    21933301.555    89813244.494  
 21  1  7 23  4  4.0000000  0  9G30G 8G28G 5G 9G27G 7G13G14
  20671939.805   108631884.993    20671947.699    84648219.072  
  21392698.164   112419395.923    21392705.641    87599617.097  
  22342861.055   117412564.264                                  
  23942932.414   125820820.338    23942939.426    98042337.989  
  23296766.789   122425244.650    23296773.938    95396429.506  
  23025788.984   121001323.122    23025796.563    94286833.425  
  20492971.805   107691365.964    20492976.578    83915379.213  
  23430109.820   123126116.561                                  
  21932771.430   115257761.874    21932777.129    89811096.624  
 21  1  7 23  4  5.0000000  0  9G30G 8G28G 5G 9G27G 7G13G14
  20671691.188   108630580.172    20671698.957    84647202.328  
  21392711.227   112419467.632    21392719.516    87599672.975  
  22342353.141   117409892.699                                  
  23943262.727   125822551.970    23943269.137    98043687.310  
  23297463.063   122428901.215    23297470.254    95399278.776  
  23026261.891   121003803.506    23026268.707    94288766.193  
  20493083.453   107691952.636    20493088.352    83915836.366  
  23429493.602   123122883.456                                  
  21932247.102   115255005.805    21932252.383    89808949.039  
 21  1  7 23  4  6.0000000  0  9G30G 8G28G 5G 9G27G 7G13G14
  20671442.789   108629275.725    20671450.949    84646185.881  
  21392725.648   112419540.072    21392733.266    87599729.417  
  22341844.711   117407221.449                                  
  23943591.820   125824284.076    23943598.391    98045037.007  
  23298158.484   122432557.988    23298165.387    95402128.205  
  23026732.750   121006284.448    23026740.852    94290699.396  
  20493195.383   107692539.750    20493200.094    83916293.852  
  23428878.266   123119650.661                                  
  21931722.508   115252250.073    21931728.195    89806801.718  
 21  1  7 23  4  7.0000000  0  9G30G 8G28G 5G 9G27G 7G13G14
  20671194.836   108627971.708    20671202.871    84645169.765  
  21392739.500   112419613.212    21392747.125    87599786.413  
  22341336.359   117404550.532                                  
  23943920.531   125826016.718    23943928.172    98046387.122  
  23298854.469   122436215.041    23298862.148    95404977.857  
  23027205.320   121008765.908    23027213.207    94292633.002  
  20493307.078   107693127.293    20493312.094    83916751.682  
  23428263.516   123116418.188                                  
  21931198.109   115249494.691    21931203.621    89804654.664  
 21  1  7 23  4  8.0000000  0  9G30G 8G28G 5G 9G27G 7G13G14
  20670946.695   108626668.085    20670954.605    84644153.948  
  21392753.148   112419687.065    21392761.215    87599843.963  
  22340827.656   117401879.914                                  
  23944250.797   125827749.888    23944257.871    98047737.643  
  23299550.445   122439872.253    23299557.875    95407827.628  
  23027677.227   121011247.930    23027685.254    94294567.043  
  20493418.641   107693715.254    20493423.988    83917209.830  
  23427648.906   123113186.032                                  
  21930673.734   115246739.665    21930679.715    89802507.893  
 21  1  7 23  4  9.0000000  0  9G30G 8G28G 5G 9G27G 7G13G14
  20670698.617   108625364.820    20670706.531    84643138.423  
  21392767.164   112419761.641    21392775.137    87599902.074  
  22340320.352   117399209.636                                  
  23944580.367   125829483.578    23944587.816    98049088.568  
  23300246.438   122443529.719    23300253.980    95410677.596  
  23028149.266   121013730.443    23028157.414    94296501.469  
  20493530.641   107694303.630    20493536.090    83917668.305  
  23427033.617   123109954.170                                  
  21930149.773   115243984.958    21930155.262    89800361.371  
 21  1  7 23  4 10.0000000  0  9G30G 8G28G 5G 9G27G 7G13G14
  20670450.922   108624061.971    20670458.605    84642123.215  
  21392781.703   112419836.924    21392789.645    87599960.736  
  22339812.211   117396539.650                                  
  23944911.641   125831217.775    23944917.723    98050439.881  
  23300942.906   122447187.387    23300949.605    95413527.728  
  23028622.602   121016213.589    23028629.750    94298436.389  
  20493643.148   107694892.425    20493647.938    83918127.112  
  23426418.898   123106722.637                                  
  21929625.703   115241230.600    21929631.199    89798215.116  
 21  1  7 23  4 11.0000000  0  9G30G 8G28G 5G 9G27G 7G13G14
  20670202.797   108622759.526    20670210.777    84641108.324  
  21392796.297   112419912.924    21392804.398    87600019.957  
  22339303.906   117393869.980                                  
  23945242.125   125832952.458    23945247.750    98051791.586  
  23301638.375   122450845.254    23301645.598    95416378.011  
  23029094.977   121018697.187    23029102.719    94300371.660  
  20493754.805   107695481.630    20493760.117    83918586.229  
  23425803.727   123103491.357                                  
  21929101.063   115238476.587    21929107.336    89796069.136  
 21  1  7 23  4 12.0000000  0  9G30G 8G28G 5G 9G27G 7G13G14
  20669955.039   108621457.460    20669962.824    84640093.730  
  21392810.469   112419989.639    21392818.824    87600079.737  
  22338795.977   117391200.639                                  
  23945572.109   125834687.661    23945577.922    98053143.695  
  23302334.195   122454503.375    23302341.676    95419228.497  
  23029567.156   121021181.360    23029575.664    94302307.377  
  20493867.359   107696071.274    20493872.012    83919045.696  
  23425188.016   123100260.441                                  
  21928577.461   115235722.932    21928583.246    89793923.434  
 21  1  7 23  4 13.0000000  0  9G30G 8G28G 5G 9G27G 7G13G14
  20669707.617   108620155.831    20669715.238    84639079.473  
  21392825.367   112420067.095    21392833.789    87600140.090  
  22338288.141   117388531.630                                  
  23945901.703   125836423.405    23945907.934    98054496.225  
  23303030.578   122458161.741    23303037.918    95422079.171  
  23030039.633   121023666.113    23030048.582    94304243.551  
  20493979.430   107696661.363    20493984.711    83919505.499  
  23424573.469   123097029.828                                  
  21928053.141   115232969.635    21928058.746    89791778.006  
 21  1  7 23  4 14.0000000  0  9G30G 8G28G 5G 9G27G 7G13G14
  20669459.844   108618854.592    20669467.766    84638065.517  
  21392840.680   112420145.262    21392848.508    87600201.005  
  22337780.070   117385862.943                                  
  23946231.180   125838159.669    23946239.035    98055849.160  
  23303726.313   122461820.327    23303734.641    95424930.020  
  23030513.109   121026151.391    23030521.262    94306180.130  
  20494091.758   107697251.869    20494096.688    83919965.639  
  23423959.445   123093799.515                                  
  21927529.125   115230216.681    21927535.031    89789632.849  
 21  1  7 23  4 15.0000000  0  9G30G 8G28G 5G 9G27G 7G13G14
  20669212.172   108617553.737    20669219.879    84637051.865  
  21392855.242   112420224.119    21392863.238    87600262.448  
  22337272.875   117383194.555                                  
  23946561.516   125839896.453    23946569.629    98057202.498  
  23304423.195   122465479.123    23304430.539    95427781.033  
  23030986.000   121028637.199    23030994.934    94308117.121  
  20494204.461   107697842.791    20494209.203    83920426.091  
  23423344.461   123090569.508                                  
  21927005.820   115227464.065    21927011.395    89787487.953  
 21  1  7 23  4 16.0000000  0  9G30G 8G28G 5G 9G27G 7G13G14
  20668965.219   108616253.284    20668972.563    84636038.521  
  21392870.328   112420303.697    21392878.445    87600324.460  
  22336765.125   117380526.506                                  
  23946892.766   125841633.764    23946899.707    98058556.239  
  23305119.664   122469138.118    23305126.426    95430632.200  
  23031459.148   121031123.558    23031467.402    94310054.546  
  20494316.773   107698434.123    20494322.352    83920886.868  
  23422730.484   123087339.795                                  
  21926481.750   115224711.804    21926487.539    89785343.333  
 21  1  7 23  4 17.0000000  0  9G30G 8G28G 5G 9G27G 7G13G14
  20668717.695   108614953.211    20668725.566    84635025.480  
  21392885.727   112420383.983    21392893.527    87600387.020  
  22336257.281   117377858.744                                  
  23947225.242   125843371.537    23947230.816    98059910.344  
  23305815.523   122472797.384    23305823.027    95433483.573  
  23031932.734   121033610.430    23031940.762    94311992.368  
  20494429.766   107699025.886    20494434.422    83921347.983  
  23422115.625   123084110.410                                  
  21925958.289   115221959.876    21925964.176    89783198.974  
 21  1  7 23  4 18.0000000  0  9G30G 8G28G 5G 9G27G 7G13G14
  20668469.867   108613653.574    20668477.770    84634012.773  
  21392901.164   112420465.012    21392909.059    87600450.154  
  22335749.867   117375191.328                                  
  23947556.523   125845109.885    23947561.133    98061264.898  
  23306511.555   122476456.841    23306519.391    95436335.093  
  23032405.906   121036097.891    23032413.949    94313930.643  
  20494541.883   107699618.107    20494547.285    83921809.456  
  23421500.445   123080881.348                                  
  21925434.414   115219208.318    21925440.660    89781054.902  
 21  1  7 23  4 19.0000000  0  9G30G 8G28G 5G 9G27G 7G13G14
  20668222.898   108612354.298    20668230.910    84633000.354  
  21392916.727   112420546.721    21392924.953    87600513.828  
  22335242.203   117372524.207                                  
  23947886.453   125846848.693    23947892.492    98062619.814  
  23307208.859   122480116.515    23307216.328    95439186.791  
  23032879.227   121038585.879    23032887.586    94315869.338  
  20494654.984   107700210.698    20494660.238    83922271.216  
  23420886.484   123077652.584                                  
  21924911.008   115216457.064    21924916.930    89778911.074  
 21  1  7 23  4 20.0000000  0  9G30G 8G28G 5G 9G27G 7G13G14
  20667975.469   108611055.444    20667983.621    84631988.259  
  21392932.641   112420629.159    21392940.707    87600578.064  
  22334734.539   117369857.417                                  
  23948216.289   125848588.054    23948223.469    98063975.166  
  23307904.891   122483776.449    23307913.039    95442038.682  
  23033352.734   121041074.384    23033361.051    94317808.427  
  20494767.781   107700803.740    20494772.684    83922733.323  
  23420272.125   123074424.129                                  
  21924387.789   115213706.218    21924393.348    89776767.563  
 21  1  7 23  4 21.0000000  0  9G30G 8G28G 5G 9G27G 7G13G14
  20667728.805   108609756.975    20667735.957    84630976.466  
  21392948.391   112420712.279    21392956.055    87600642.833  
  22334226.539   117367190.933                                  
  23948546.242   125850327.906    23948554.113    98065330.895  
  23308601.250   122487436.574    23308609.121    95444890.726  
  23033826.367   121043563.402    23033834.684    94319747.924  
  20494880.734   107701397.182    20494885.691    83923195.754  
  23419657.477   123071195.957                                  
  21923864.344   115210955.660    21923870.254    89774624.271  
 21  1  7 23  4 22.0000000  0  9G30G 8G28G 5G 9G27G 7G13G14
  20667481.805   108608458.907    20667489.578    84629964.987  
  21392964.008   112420796.105    21392972.172    87600708.149  
  22333719.828   117364524.770                                  
  23948878.641   125852068.266    23948885.133    98066687.016  
  23309297.570   122491096.913    23309305.852    95447742.938  
  23034300.438   121046053.008    23034308.336    94321687.877  
  20494993.938   107701991.070    20494998.910    83923658.521  
  23419043.570   123067968.091                                  
  21923340.938   115208205.465    21923346.207    89772481.257  
 21  1  7 23  4 23.0000000  0  9G30G 8G28G 5G 9G27G 7G13G14
  20667234.813   108607161.259    20667242.645    84628953.829  
  21392980.148   112420880.671    21392988.336    87600774.052  
  22333212.977   117361858.948                                  
  23949210.664   125853809.190    23949216.789    98068043.574  
  23309994.219   122494757.500    23310002.492    95450595.342  
  23034773.859   121048543.170    23034782.441    94323628.269  
  20495106.703   107702585.393    20495111.609    83924121.624  
  23418428.789   123064740.580                                  
  21922817.398   115205455.640    21922823.148    89770338.536  
 21  1  7 23  4 24.0000000  0  9G30G 8G28G 5G 9G27G 7G13G14
  20666987.922   108605863.971    20666995.688    84627942.957  
  21392996.258   112420965.911    21393004.492    87600840.473  
  22332705.211   117359193.413                                  
  23949542.617   125855550.582    23949548.242    98069400.503  
  23310691.234   122498418.278    23310698.480    95453447.898  
  23035248.070   121051033.829    23035255.996    94325569.041  
  20495220.359   107703180.112    20495225.645    83924585.043  
  23417815.336   123061513.321                                  
  21922294.391   115202706.135    21922300.379    89768196.067  
 21  1  7 23  4 25.0000000  0  9G30G 8G28G 5G 9G27G 7G13G14
  20666741.055   108604567.146    20666749.145    84626932.445  
  21393012.758   112421051.919    21393020.824    87600907.493  
  22332198.227   117356528.237                                  
  23949873.352   125857292.513    23949880.238    98070757.851  
  23311387.836   122502079.356    23311395.199    95456300.687  
  23035722.672   121053525.096    23035730.254    94327510.287  
  20495333.523   107703775.287    20495338.320    83925048.822  
  23417201.000   123058286.434                                  
  21921771.406   115199957.027    21921777.020    89766053.909  
 21  1  7 23  4 26.0000000  0  9G30G 8G28G 5G 9G27G 7G13G14
  20666494.523   108603270.705    20666502.656    84625922.225  
  21393028.906   112421138.609    21393037.578    87600975.042  
  22331690.813   117353863.376                                  
  23950204.000   125859034.972    23950211.207    98072115.615  
  23312085.547   122505740.598    23312092.000    95459153.604  
  23036197.758   121056016.862    23036204.629    94329451.920  
  20495446.328   107704370.899    20495451.566    83925512.931  
  23416586.789   123055059.827                                  
  21921248.156   115197208.235    21921254.008    89763911.991  
 21  1  7 23  4 27.0000000  0  9G30G 8G28G 5G 9G27G 7G13G14
  20666247.508   108601974.611    20666255.758    84624912.282  
  21393046.242   112421226.041    21393053.898    87601043.166  
  22331183.984   117351198.804                                  
  23950535.102   125860777.901    23950543.223    98073473.737  
  23312781.617   122509402.054    23312789.004    95462006.680  
  23036670.250   121058509.178    23036678.668    94331393.985  
  20495560.133   107704966.894    20495565.027    83925977.346  
  23415972.844   123051833.538                                  
  21920725.422   115194459.774    21920730.766    89761770.337  
 21  1  7 23  4 28.0000000  0  9G30G 8G28G 5G 9G27G 7G13G14
  20666000.883   108600678.933    20666009.199    84623902.662  
  21393062.766   112421314.202    21393070.512    87601111.867  
  22330677.398   117348534.555                                  
  23950866.883   125862521.366    23950874.129    98074832.282  
  23313478.570   122513063.739    23313485.867    95464859.940  
  23037145.156   121061002.007    23037152.953    94333336.452  
  20495673.438   107705563.321    20495678.406    83926442.090  
  23415359.023   123048607.543                                  
  21920202.086   115191711.666    21920208.066    89759628.953  
 21  1  7 23  4 29.0000000  0  9G30G 8G28G 5G 9G27G 7G13G14
  20665754.766   108599383.668    20665762.457    84622893.365  
  21393079.398   112421403.066    21393087.625    87601181.113  
  22330169.977   117345870.652                                  
  23951200.266   125864265.367    23951206.066    98076191.241  
  23314175.633   122516725.661    23314183.086    95467713.388  
  23037619.602   121063495.386    23037627.148    94335279.340  
  20495787.297   107706160.167    20495792.164    83926907.166  
  23414746.141   123045381.858                                  
  21919679.922   115188963.909    21919684.977    89757487.844  
 21  1  7 23  4 30.0000000  0  9G30G 8G28G 5G 9G27G 7G13G14
  20665508.406   108598088.811    20665516.258    84621884.386  
  21393096.563   112421492.630    21393104.828    87601250.904  
  22329663.258   117343207.026                                  
  23951532.891   125866009.836    23951538.465    98077550.564  
  23314872.664   122520387.788    23314879.699    95470566.992  
  23038094.359   121065989.344    23038102.410    94337222.688  
  20495900.914   107706757.438    20495905.605    83927372.575  
  23414132.023   123042156.499                                  
  21919156.086   115186216.521    21919162.293    89755347.023  
 21  1  7 23  4 31.0000000  0  9G30G 8G28G 5G 9G27G 7G13G14
  20665261.773   108596794.311    20665270.086    84620875.683  
  21393113.953   112421582.855    21393122.109    87601321.214  
  22329156.531   117340543.739                                  
  23951865.422   125867754.847    23951870.711    98078910.320  
  23315568.945   122524050.111    23315576.180    95473420.749  
  23038568.703   121068483.816    23038576.797    94339166.432  
  20496014.320   107707355.131    20496019.266    83927838.312  
  23413518.344   123038931.444                                  
  21918633.531   115183469.424    21918639.859    89753206.427  
 21  1  7 23  4 32.0000000  0  9G30G 8G28G 5G 9G27G 7G13G14
  20665015.898   108595500.266    20665023.926    84619867.343  
  21393130.930   112421673.826    21393139.063    87601392.096  
  22328649.414   117337880.799                                  
  23952196.727   125869500.389    23952203.273    98080270.489  
  23316265.617   122527712.729    23316273.445    95476274.738  
  23039043.125   121070978.844    23039051.563    94341110.612  
  20496128.422   107707953.266    20496133.566    83928304.390  
  23412904.492   123035706.728                                  
  21918111.305   115180722.746    21918116.801    89751066.164  
 21  1  7 23  4 33.0000000  0  9G30G 8G28G 5G 9G27G 7G13G14
  20664769.594   108594206.558    20664777.418    84618859.256  
  21393148.844   112421765.470    21393156.645    87601463.507  
  22328143.258   117335218.116                                  
  23952527.484   125871246.423    23952535.691    98081631.038  
  23316962.938   122531375.482    23316970.125    95479128.830  
  23039518.469   121073474.350    23039526.418    94343055.166  
  20496242.359   107708551.797    20496246.992    83928770.772  
  23412291.000   123032482.273                                  
  21917588.445   115177976.347    21917593.770    89748926.110  
 21  1  7 23  4 34.0000000  0  9G30G 8G28G 5G 9G27G 7G13G14
  20664523.195   108592913.297    20664531.797    84617851.524  
  21393166.141   112421857.896    21393174.535    87601535.528  
  22327636.617   117332555.826                                  
  23952859.766   125872993.006    23952867.652    98082992.005  
  23317660.094   122535038.541    23317667.340    95481983.164  
  23039993.109   121075970.473    23040001.723    94345000.194  
  20496356.109   107709150.797    20496361.074    83929237.526  
  23411677.711   123029258.169                                  
  21917065.414   115175230.360    21917071.605    89746786.380  
 21  1  7 23  4 35.0000000  0  9G30G 8G28G 5G 9G27G 7G13G14
  20664277.039   108591620.423    20664285.422    84616844.089  
  21393184.141   112421951.014    21393192.055    87601608.089  
  22327130.094   117329893.831                                  
  23953193.016   125874740.090    23953199.543    98084353.369  
  23318357.195   122538701.766    23318364.199    95484837.621  
  23040468.695   121078467.084    23040476.809    94346945.603  
  20496470.289   107709750.190    20496474.824    83929704.590  
  23411064.414   123026034.362                                  
  21916543.586   115172484.675    21916549.469    89744646.888  
 21  1  7 23  4 36.0000000  0  9G30G 8G28G 5G 9G27G 7G13G14
  20664031.234   108590327.934    20664039.527    84615836.956  
  21393201.922   112422044.831    21393209.375    87601681.191  
  22326622.898   117327232.178                                  
  23953526.047   125876487.672    23953532.184    98085715.114  
  23319054.539   122542365.215    23319061.430    95487692.259  
  23040943.953   121080964.267    23040952.102    94348891.462  
  20496584.352   107710350.008    20496589.605    83930171.978  
  23410451.125   123022810.851                                  
  21916020.750   115169739.358    21916026.852    89742507.682  
 21  1  7 23  4 37.0000000  0  9G30G 8G28G 5G 9G27G 7G13G14
  20663785.398   108589035.853    20663793.816    84614830.136  
  21393219.656   112422139.375    21393227.285    87601754.862  
  22326116.438   117324570.806                                  
  23953860.148   125878235.757    23953864.852    98087077.261  
  23319751.578   122546028.885    23319758.238    95490547.061  
  23041419.414   121083461.982    23041427.238    94350837.735  
  20496698.891   107710950.255    20496703.324    83930639.703  
  23409837.414   123019587.666                                  
  21915498.594   115166994.369    21915504.254    89740368.730  
 21  1  7 23  4 38.0000000  0  9G30G 8G28G 5G 9G27G 7G13G14
  20663539.742   108587744.192    20663547.922    84613823.647  
  21393237.500   112422234.644    21393245.977    87601829.100  
  22325610.898   117321909.808                                  
  23954192.203   125879984.401    23954198.020    98088439.850  
  23320448.641   122549692.825    23320455.594    95493402.076  
  23041894.219   121085960.245    23041902.418    94352784.434  
  20496812.758   107711550.951    20496817.746    83931107.780  
  23409224.539   123016364.808                                  
  21914975.891   115164249.763    21914982.270    89738230.074  
 21  1  7 23  4 39.0000000  0  9G30G 8G28G 5G 9G27G 7G13G14
  20663294.102   108586452.888    20663302.082    84612817.434  
  21393255.891   112422330.591    21393263.949    87601903.866  
  22325103.711   117319249.065                                  
  23954523.828   125881733.480    23954530.352    98089802.776  
  23321145.797   122553356.930    23321153.113    95496257.219  
  23042369.633   121088459.039    23042377.270    94354731.543  
  20496927.563   107712152.035    20496931.809    83931576.156  
  23408610.805   123013142.220                                  
  21914453.758   115161505.450    21914459.859    89736091.653  
 21  1  7 23  4 40.0000000  0  9G30G 8G28G 5G 9G27G 7G13G14
  20663048.703   108585161.993    20663056.918    84611811.541  
  21393274.172   112422427.253    21393282.617    87601979.186  
  22324598.117   117316588.676                                  
  23954856.117   125883483.115    23954863.285    98091166.127  
  23321843.070   122557021.265    23321850.430    95499112.548  
  23042845.820   121090958.358    23042853.305    94356679.064  
  20497041.633   107712753.558    20497046.605    83932044.875  
  23407997.523   123009919.923                                  
  21913931.781   115158761.528    21913937.742    89733953.534  
 21  1  7 23  4 41.0000000  0  9G30G 8G28G 5G 9G27G 7G13G14
  20662802.695   108583871.519    20662811.000    84610805.977  
  21393293.031   112422524.649    21393301.445    87602055.079  
  22324092.391   117313928.627                                  
  23955189.000   125885233.285    23955196.430    98092529.894  
  23322540.602   122560685.855    23322547.520    95501968.070  
  23043320.953   121093458.227    23043329.504    94358627.016  
  20497156.172   107713355.487    20497161.211    83932513.907  
  23407384.281   123006697.981                                  
  21913409.750   115156017.930    21913415.762    89731815.666  
 21  1  7 23  4 42.0000000  0  9G30G 8G28G 5G 9G27G 7G13G14
  20662557.148   108582581.426    20662564.969    84609800.714  
  21393311.625   112422622.747    21393320.074    87602131.520  
  22323585.867   117311268.849                                  
  23955523.383   125886983.937    23955529.566    98093894.026  
  23323237.844   122564350.635    23323244.879    95504823.744  
  23043796.828   121095958.649    23043804.645    94360575.391  
  20497271.023   107713957.863    20497275.906    83932983.293  
  23406771.586   123003476.355                                  
  21912888.117   115153274.688    21912893.715    89729678.070  
 21  1  7 23  4 43.0000000  0  9G30G 8G28G 5G 9G27G 7G13G14
  20662311.789   108581291.751    20662319.809    84608795.771  
  21393329.805   112422721.582    21393338.484    87602208.527  
  22323079.422   117308609.413                                  
  23955857.797   125888735.096    23955862.930    98095258.565  
  23323934.641   122568015.630    23323942.410    95507679.579  
  23044273.570   121098459.597    23044280.867    94362524.178  
  20497385.438   107714560.666    20497390.273    83933453.014  
  23406158.328   123000255.021                                  
  21912365.273   115150531.807    21912371.531    89727540.766  
 21  1  7 23  4 44.0000000  0  9G30G 8G28G 5G 9G27G 7G13G14
  20662066.500   108580002.455    20662074.520    84607791.124  
  21393349.438   112422821.110    21393357.547    87602286.082  
  22322573.195   117305950.302                                  
  23956191.188   125890486.791    23956196.176    98096623.528  
  23324632.945   122571680.852    23324640.281    95510535.598  
  23044749.203   121100961.095    23044756.520    94364473.400  
  20497500.320   107715163.891    20497504.969    83933923.059  
  23405545.367   122997034.017                                  
  21911844.023   115147789.265    21911850.004    89725403.718  
 21  1  7 23  4 45.0000000  0  9G30G 8G28G 5G 9G27G 7G13G14
  20661821.313   108578713.583    20661829.098    84606786.806  
  21393368.578   112422921.352    21393376.426    87602364.192  
  22322067.469   117303291.514                                  
  23956523.133   125892238.988    23956529.438    98097988.895  
  23325329.852   122575346.300    23325338.020    95513391.792  
  23045225.820   121103463.113    23045232.980    94366423.023  
  20497615.680   107715767.541    20497620.379    83934393.436  
  23404932.422   122993813.296                                  
  21911322.609   115145047.076    21911328.137    89723266.949  
 21  1  7 23  4 46.0000000  0  9G30G 8G28G 5G 9G27G 7G13G14
  20661575.930   108577425.079    20661584.051    84605782.781  
  21393387.852   112423022.281    21393395.703    87602442.839  
  22321561.227   117300632.983                                  
  23956855.578   125893991.664    23956863.109    98099354.626  
  23326028.086   122579011.943    23326035.074    95516248.139  
  23045701.555   121105965.662    23045709.430    94368373.068  
  20497730.008   107716371.582    20497735.082    83934864.120  
  23404319.211   122990592.884                                  
  21910800.164   115142305.194    21910805.793    89721130.414  
 21  1  7 23  4 47.0000000  0  9G30G 8G28G 5G 9G27G 7G13G14
  20661331.031   108576136.979    20661339.102    84604779.063  
  21393406.891   112423123.960    21393415.301    87602522.075  
  22321055.898   117297974.852                                  
  23957189.250   125895744.930    23957196.230    98100720.802  
  23326725.570   122582677.843    23326732.602    95519104.681  
  23046177.336   121108468.802    23046186.309    94370323.561  
  20497845.719   107716976.100    20497850.719    83935335.169  
  23403706.430   122987372.823                                  
  21910279.086   115139563.708    21910284.777    89718994.197  
 21  1  7 23  4 48.0000000  0  9G30G 8G28G 5G 9G27G 7G13G14
  20661085.961   108574849.320    20661094.160    84603775.697  
  21393426.836   112423226.369    21393434.758    87602601.874  
  22320550.453   117295317.037                                  
  23957523.891   125897498.651    23957530.531    98102087.328  
  23327423.234   122586343.981    23327430.676    95521961.412  
  23046654.719   121110972.436    23046662.016    94372274.446  
  20497960.570   107717581.024    20497965.273    83935806.541  
  23403093.828   122984153.043                                  
  21909757.297   115136822.559    21909762.574    89716858.238  
 21  1  7 23  4 49.0000000  0  9G30G 8G28G 5G 9G27G 7G13G14
  20660841.398   108573562.011    20660849.242    84602772.599  
  21393446.242   112423329.441    21393454.527    87602682.192  
  22320043.906   117292659.453                                  
  23957858.984   125899252.872    23957864.109    98103454.243  
  23328121.188   122590010.340    23328128.098    95524818.315  
  23047130.984   121113476.622    23047138.031    94374225.758  
  20498075.711   107718186.355    20498080.586    83936278.225  
  23402480.922   122980933.561                                  
  21909235.602   115134081.760    21909241.359    89714722.554  
 21  1  7 23  4 50.0000000  0  9G30G 8G28G 5G 9G27G 7G13G14
  20660595.930   108572275.085    20660604.230    84601769.796  
  21393465.984   112423433.207    21393474.539    87602763.051  
  22319538.016   117290002.243                                  
  23958193.992   125901007.625    23958198.582    98104821.584  
  23328818.641   122593676.907    23328825.676    95527675.380  
  23047607.867   121115981.306    23047615.402    94376177.464  
  20498190.922   107718792.084    20498196.098    83936750.219  
  23401868.453   122977714.378                                  
  21908714.281   115131341.274    21908719.762    89712587.111  
 21  1  7 23  4 51.0000000  0  9G30G 8G28G 5G 9G27G 7G13G14
  20660351.219   108570988.627    20660359.105    84600767.363  
  21393485.750   112423537.742    21393494.258    87602844.500  
  22319033.188   117287345.383                                  
  23958525.914   125902762.899    23958532.617    98106189.330  
  23329516.508   122597343.683    23329523.406    95530532.609  
  23048084.023   121118486.577    23048092.082    94378129.620  
  20498306.445   107719398.304    20498311.414    83937222.600  
  23401256.508   122974495.572                                  
  21908192.539   115128601.179    21908198.273    89710451.969  
 21  1  7 23  4 52.0000000  0  9G30G 8G28G 5G 9G27G 7G13G14
  20660106.625   108569702.523    20660114.930    84599765.199  
  21393505.820   112423642.971    21393513.785    87602926.498  
  22318527.523   117284688.805                                  
  23958858.820   125904518.665    23958866.734    98107557.462  
  23330213.750   122601010.698    23330221.465    95533390.025  
  23048560.813   121120992.381    23048569.313    94380082.194  
  20498421.477   107720004.908    20498426.738    83937695.278  
  23400643.906   122971277.027                                  
  21907671.453   115125861.421    21907676.438    89708317.092  
 21  1  7 23  4 53.0000000  0  9G30G 8G28G 5G 9G27G 7G13G14
  20659862.070   108568416.848    20659870.262    84598763.377  
  21393526.328   112423748.928    21393534.336    87603009.067  
  22318022.352   117282032.573                                  
  23959191.969   125906274.961    23959200.145    98108926.001  
  23330911.602   122604677.901    23330919.188    95536247.586  
  23049037.563   121123498.729    23049046.047    94382035.191  
  20498537.250   107720611.964    20498542.035    83938168.305  
  23400031.609   122968058.861                                  
  21907150.039   115123122.011    21907155.742    89706182.490  
 21  1  7 23  4 54.0000000  0  9G30G 8G28G 5G 9G27G 7G13G14
  20659617.289   108567131.554    20659625.426    84597761.847  
  21393545.906   112423855.573    21393554.805    87603092.162  
  22317516.234   117279376.650                                  
  23959528.000   125908031.782    23959534.844    98110294.946  
  23331609.586   122608345.307    23331617.098    95539105.306  
  23049514.359   121126005.593    23049523.121    94383988.591  
  20498652.688   107721219.415    20498657.426    83938641.647  
  23399419.438   122964840.929                                  
  21906629.000   115120382.949    21906634.559    89704048.158  
 21  1  7 23  4 55.0000000  0  9G30G 8G28G 5G 9G27G 7G13G14
  20659372.539   108565846.653    20659380.738    84596760.624  
  21393566.500   112423962.937    21393574.930    87603175.824  
  22317011.305   117276721.008                                  
  23959863.703   125909789.078    23959869.492    98111664.258  
  23332306.969   122612012.960    23332314.688    95541963.220  
  23049992.422   121128512.988    23050000.254    94385942.408  
  20498768.469   107721827.297    20498773.266    83939115.318  
  23398806.773   122961623.317                                  
  21906107.781   115117644.231    21906113.492    89701914.095  
 21  1  7 23  4 56.0000000  0  9G30G 8G28G 5G 9G27G 7G13G14
  20659128.414   108564562.178    20659136.492    84595759.735  
  21393586.820   112424071.056    21393595.121    87603260.075  
  22316506.063   117274065.752                                  
  23960198.891   125911546.949    23960203.688    98113034.025  
  23333005.555   122615680.848    23333013.039    95544821.315  
  23050468.617   121131020.996    23050477.305    94387896.706  
  20498884.336   107722435.634    20498889.484    83939589.355  
  23398194.133   122958406.084                                  
  21905586.820   115114905.909    21905592.543    89699780.338  
 21  1  7 23  4 57.0000000  0  9G30G 8G28G 5G 9G27G 7G13G14
  20658883.914   108563278.093    20658891.617    84594759.151  
  21393607.961   112424179.884    21393616.621    87603344.873  
  22315999.945   117271410.780                                  
  23960533.367   125913305.271    23960538.738    98114404.147  
  23333703.742   122619348.909    23333710.719    95547679.541  
  23050947.000   121133529.485    23050955.457    94389851.374  
  20499000.305   107723044.362    20499005.047    83940063.686  
  23397582.094   122955189.096                                  
  21905065.453   115112167.869    21905071.172    89697646.801  
 21  1  7 23  4 58.0000000  0  9G30G 8G28G 5G 9G27G 7G13G14
  20658639.727   108561994.374    20658648.023    84593758.854  
  21393628.695   112424289.363    21393636.977    87603430.185  
  22315495.508   117268756.120                                  
  23960866.555   125915064.095    23960874.242    98115774.666  
  23334401.320   122623017.191    23334408.668    95550537.936  
  23051424.359   121136038.486    23051432.148    94391806.438  
  20499115.867   107723653.492    20499121.344    83940538.330  
  23396969.602   122951972.421                                  
  21904544.031   115109430.161    21904550.418    89695513.517  
 21  1  7 23  4 59.0000000  0  9G30G 8G28G 5G 9G27G 7G13G14
  20658395.156   108560711.097    20658403.445    84592758.897  
  21393649.820   112424399.581    21393657.848    87603516.066  
  22314990.523   117266101.801                                  
  23961200.016   125916823.486    23961208.613    98117145.624  
  23335099.648   122626685.726    23335106.992    95553396.530  
  23051902.141   121138548.040    23051909.664    94393761.928  
  20499231.898   107724263.079    20499236.613    83941013.333  
  23396357.453   122948756.076                                  
  21904023.633   115106692.859    21904029.125    89693380.556  
 21  1  7 23  5  0.0000000  0  9G30G 8G28G 5G 9G27G 7G13G14
  20658151.477   108559428.211    20658159.598    84591759.241  
  21393670.773   112424510.496    21393679.352    87603602.494  
  22314485.859   117263447.792                                  
  23961534.633   125918583.346    23961543.367    98118516.939  
  23335797.602   122630354.477    23335805.379    95556255.295  
  23052378.977   121141058.159    23052387.379    94395717.870  
  20499348.375   107724873.089    20499353.055    83941488.669  
  23395746.313   122945540.058                                  
  21903502.727   115103955.887    21903508.648    89691247.860  
 21  1  7 23  5  1.0000000  0  9G30G 8G28G 5G 9G27G 7G13G14
  20657907.320   108558145.713    20657915.070    84590759.893  
  21393692.086   112424622.139    21393700.285    87603689.491  
  22313979.945   117260794.117                                  
  23961871.711   125920343.763    23961877.770    98119888.685  
  23336495.563   122634023.473    23336503.594    95559114.256  
  23052857.242   121143568.826    23052865.449    94397674.231  
  20499464.180   107725483.551    20499469.273    83941964.350  
  23395134.344   122942324.323                                  
  21902982.266   115101219.287    21902987.832    89689115.449  
 21  1  7 23  5  2.0000000  0  9G30G 8G28G 5G 9G27G 7G13G14
  20657663.344   108556863.643    20657671.457    84589760.878  
  21393713.695   112424734.475    21393721.656    87603777.023  
  22313475.391   117258140.730                                  
  23962207.883   125922104.659    23962212.566    98121260.809  
  23337194.234   122637692.646    23337201.902    95561973.348  
  23053335.195   121146080.016    23053343.422    94399630.999  
  20499580.516   107726094.406    20499585.402    83942440.340  
  23394522.070   122939108.941                                  
  21902461.500   115098482.999    21902466.727    89686983.275  
 21  1  7 23  5  3.0000000  0  9G30G 8G28G 5G 9G27G 7G13G14
  20657419.133   108555581.933    20657427.930    84588762.142  
  21393734.859   112424847.533    21393743.164    87603865.123  
  22312970.344   117255487.687                                  
  23962543.266   125923866.033    23962548.070    98122633.308  
  23337892.281   122641362.010    23337900.145    95564832.592  
  23053813.094   121148591.721    23053820.980    94401588.174  
  20499696.891   107726705.717    20499701.531    83942916.692  
  23393910.078   122935893.884                                  
  21901940.953   115095747.082    21901946.063    89684851.387  
 21  1  7 23  5  4.0000000  0  9G30G 8G28G 5G 9G27G 7G13G14
  20657175.406   108554300.647    20657183.594    84587763.742  
  21393756.531   112424961.307    21393764.555    87603953.778  
  22312465.906   117252834.971                                  
  23962877.430   125925627.988    23962883.473    98124006.268  
  23338590.375   122645031.657    23338598.141    95567692.060  
  23054290.602   121151103.989    23054298.965    94403545.782  
  20499812.773   107727317.430    20499818.090    83943393.351  
  23393298.805   122932679.125                                  
  21901420.375   115093011.530    21901425.684    89682719.789  
 21  1  7 23  5  5.0000000  0  9G30G 8G28G 5G 9G27G 7G13G14
  20656931.688   108553019.783    20656940.090    84586765.660  
  21393778.203   112425075.793    21393786.883    87604042.986  
  22311960.914   117250182.564                                  
  23963211.164   125927390.420    23963219.398    98125379.604  
  23339289.547   122648701.516    23339296.730    95570551.692  
  23054769.016   121153616.818    23054777.223    94405503.826  
  20499929.531   107727929.602    20499934.672    83943870.364  
  23392687.250   122929464.675                                  
  21900899.266   115090276.298    21900904.930    89680588.436  
 21  1  7 23  5  6.0000000  0  9G30G 8G28G 5G 9G27G 7G13G14
  20656688.281   108551739.297    20656696.133    84585767.885  
  21393800.328   112425190.992    21393808.707    87604132.755  
  22311456.078   117247530.480                                  
  23963545.711   125929153.413    23963554.238    98126753.366  
  23339987.945   122652371.570    23339995.516    95573411.476  
  23055247.313   121156130.148    23055255.680    94407462.263  
  20500046.438   107728542.181    20500051.387    83944347.699  
  23392075.781   122926250.545                                  
  21900378.664   115087541.415    21900384.836    89678457.360  
 21  1  7 23  5  7.0000000  0  9G30G 8G28G 5G 9G27G 7G13G14
  20656444.617   108550459.215    20656452.805    84584770.413  
  21393822.375   112425306.915    21393830.754    87604223.081  
  22310952.289   117244878.718                                  
  23963882.438   125930916.825    23963890.020    98128127.447  
  23340685.633   122656041.832    23340693.488    95576271.419  
  23055725.234   121158644.014    23055734.125    94409421.120  
  20500162.992   107729155.172    20500168.059    83944825.354  
  23391464.820   122923036.683                                  
  21899859.148   115084806.894    21899864.891    89676326.571  
 21  1  7 23  5  8.0000000  0  9G30G 8G28G 5G 9G27G 7G13G14
  20656201.258   108549179.515    20656209.383    84583773.246  
  21393844.375   112425423.526    21393852.766    87604313.951  
  22310447.648   117242227.290                                  
  23964219.891   125932680.798    23964225.512    98129501.966  
  23341384.617   122659712.319    23341392.109    95579131.537  
  23056204.125   121161158.433    23056212.754    94411380.408  
  20500279.594   107729768.583    20500284.949    83945303.335  
  23390852.594   122919823.175                                  
  21899338.242   115082072.711    21899344.512    89674196.042  
 21  1  7 23  5  9.0000000  0  9G30G 8G28G 5G 9G27G 7G13G14
  20655957.555   108547900.235    20655965.813    84582776.405  
  21393867.242   112425540.878    21393875.160    87604405.392  
  22309942.656   117239576.167                                  
  23964557.148   125934445.284    23964561.680    98130876.887  
  23342082.391   122663383.037    23342090.301    95581991.834  
  23056682.930   121163673.395    23056691.004    94413340.117  
  20500396.555   107730382.443    20500401.664    83945781.670  
  23390240.188   122916610.004                                  
  21898818.773   115079338.906    21898824.609    89672065.803  
 21  1  7 23  5 10.0000000  0  9G30G 8G28G 5G 9G27G 7G13G14
  20655714.273   108546621.340    20655722.371    84581779.864  
  21393889.492   112425658.935    21393897.453    87604497.380  
  22309437.656   117236925.362                                  
  23964891.883   125936210.269    23964897.113    98132252.210  
  23342780.945   122667053.948    23342788.973    95584852.286  
  23057161.516   121166188.858    23057169.840    94415300.217  
  20500513.594   107730996.710    20500518.449    83946260.322  
  23389629.008   122913397.114                                  
  21898298.117   115076605.419    21898304.066    89669935.813  
 21  1  7 23  5 11.0000000  0  9G30G 8G28G 5G 9G27G 7G13G14
  20655470.906   108545342.831    20655478.797    84580783.621  
  21393911.766   112425777.669    21393920.234    87604589.903  
  22308934.156   117234274.844                                  
  23965226.117   125937975.724    23965233.262    98133627.896  
  23343480.039   122670725.091    23343487.805    95587712.919  
  23057640.609   121168704.834    23057648.512    94417260.715  
  20500630.453   107731611.372    20500635.328    83946739.279  
  23389018.336   122910184.517                                  
  21897777.797   115073872.256    21897783.965    89667806.067  
 21  1  7 23  5 12.0000000  0  9G30G 8G28G 5G 9G27G 7G13G14
  20655227.672   108544064.789    20655235.918    84579787.742  
  21393934.500   112425897.146    21393943.168    87604683.001  
  22308430.227   117231624.724                                  
  23965560.695   125939741.758    23965568.965    98135004.029  
  23344178.477   122674396.492    23344186.324    95590573.746  
  23058119.367   121171221.404    23058127.426    94419221.683  
  20500748.086   107732226.521    20500752.695    83947218.615  
  23388407.164   122906972.291                                  
  21897257.719   115071139.489    21897263.809    89665676.642  
 21  1  7 23  5 13.0000000  0  9G30G 8G28G 5G 9G27G 7G13G14
  20654984.656   108542787.067    20654992.117    84578792.114  
  21393957.719   112426017.292    21393965.754    87604776.623  
  22307925.164   117228974.857                                  
  23965897.430   125941508.237    23965904.922    98136380.499  
  23344877.492   122678068.036    23344884.539    95593434.690  
  23058597.953   121173738.494    23058606.449    94421183.056  
  20500864.586   107732842.044    20500869.199    83947698.246  
  23387795.750   122903760.316                                  
  21896737.969   115068407.031    21896743.887    89663547.460  
 21  1  7 23  5 14.0000000  0  9G30G 8G28G 5G 9G27G 7G13G14
  20654741.523   108541509.771    20654749.500    84577796.825  
  21393980.586   112426138.185    21393988.488    87604870.825  
  22307420.898   117226325.328                                  
  23966235.016   125943275.247    23966241.836    98137757.383  
  23345576.172   122681739.835    23345583.977    95596295.833  
  23059076.906   121176256.105    23059085.527    94423144.829  
  20500981.617   107733458.006    20500986.840    83948178.217  
  23387185.063   122900548.683                                  
  21896218.648   115065674.958    21896223.922    89661418.580  
 21  1  7 23  5 15.0000000  0  9G30G 8G28G 5G 9G27G 7G13G14
  20654498.773   108540232.915    20654506.344    84576801.868  
  21394004.063   112426259.807    21394011.816    87604965.602  
  22306917.086   117223676.145                                  
  23966572.375   125945042.793    23966577.695    98139134.685  
  23346274.438   122685411.869    23346282.383    95599157.161  
  23059556.477   121178774.305    23059564.328    94425107.062  
  20501099.031   107734074.403    20501104.012    83948658.526  
  23386573.953   122897337.366                                  
  21895698.313   115062943.238    21895704.457    89659289.969  
 21  1  7 23  5 16.0000000  0  9G30G 8G28G 5G 9G27G 7G13G14
  20654255.961   108538956.445    20654263.645    84575807.213  
  21394026.945   112426382.138    21394036.020    87605060.920  
  22306412.859   117221027.285                                  
  23966908.648   125946810.845    23966914.125    98140512.390  
  23346973.391   122689084.098    23346981.047    95602018.640  
  23060035.656   121181293.030    23060043.668    94427069.708  
  20501216.320   107734691.237    20501221.738    83949139.168  
  23385962.672   122894126.364                                  
  21895178.758   115060211.879    21895184.105    89657161.635  
 21  1  7 23  5 17.0000000  0  9G30G 8G28G 5G 9G27G 7G13G14
  20654012.773   108537680.361    20654020.961    84574812.866  
  21394050.109   112426505.152    21394058.633    87605156.772  
  22305909.195   117218378.712                                  
  23967243.914   125948579.407    23967251.102    98141890.498  
  23347672.680   122692756.568    23347679.934    95604880.306  
  23060515.305   121183812.263    23060523.203    94429032.751  
  20501333.992   107735308.465    20501338.563    83949620.127  
  23385351.469   122890915.694                                  
  21894659.133   115057480.837    21894664.625    89655033.548  
 21  1  7 23  5 18.0000000  0  9G30G 8G28G 5G 9G27G 7G13G14
  20653770.422   108536404.688    20653778.379    84573818.837  
  21394074.352   112426628.897    21394081.988    87605253.199  
  22305404.734   117215730.479                                  
  23967579.578   125950348.502    23967586.879    98143269.016  
  23348371.898   122696429.265    23348378.633    95607742.138  
  23060994.281   121186332.034    23061002.641    94430996.207  
  20501451.500   107735926.149    20501455.691    83950101.446  
  23384740.688   122887705.337                                  
  21894139.266   115054750.154    21894144.516    89652905.740  
 21  1  7 23  5 19.0000000  0  9G30G 8G28G 5G 9G27G 7G13G14
  20653527.484   108535129.422    20653535.266    84572825.118  
  21394097.547   112426753.361    21394106.082    87605350.185  
  22304901.328   117213082.553                                  
  23967916.266   125952118.070    23967923.781    98144647.903  
  23349070.859   122700102.162    23349078.070    95610604.138  
  23061474.328   121188852.377    23061482.086    94432960.111  
  20501569.148   107736544.238    20501573.879    83950583.076  
  23384130.211   122884495.285                                  
  21893619.844   115052019.840    21893625.504    89650778.226  
 21  1  7 23  5 20.0000000  0  9G30G 8G28G 5G 9G27G 7G13G14
  20653284.992   108533854.551    20653292.762    84571831.714  
  21394121.531   112426878.550    21394130.277    87605447.737  
  22304396.992   117210434.949                                  
  23968254.219   125953888.184    23968260.758    98146027.199  
  23349769.836   122703775.256    23349777.203    95613466.286  
  23061953.438   121191373.228    23061961.746    94434924.409  
  20501686.672   107737162.762    20501691.797    83951065.036  
  23383519.172   122881285.548                                  
  21893100.266   115049289.845    21893106.105    89648650.961  
 21  1  7 23  5 21.0000000  0  9G30G 8G28G 5G 9G27G 7G13G14
  20653042.195   108532580.086    20653050.234    84570838.626  
  21394144.883   112427004.443    21394153.617    87605545.831  
  22303893.125   117207787.689                                  
  23968592.141   125955658.781    23968597.848    98147406.878  
  23350468.844   122707448.584    23350475.820    95616328.625  
  23062432.906   121193894.599    23062441.703    94436889.117  
  20501804.680   107737781.712    20501809.391    83951547.341  
  23382908.461   122878076.108                                  
  21892580.922   115046560.216    21892586.723    89646523.978  
 21  1  7 23  5 22.0000000  0  9G30G 8G28G 5G 9G27G 7G13G14
  20652799.891   108531306.003    20652807.957    84569845.832  
  21394169.141   112427131.022    21394177.563    87605644.470  
  22303390.484   117205140.704                                  
  23968929.867   125957429.868    23968935.215    98148786.943  
  23351167.867   122711122.115    23351174.746    95619191.112  
  23062913.031   121196416.515    23062921.703    94438854.246  
  20501922.250   107738401.082    20501927.668    83952029.962  
  23382297.211   122874866.999                                  
  21892061.016   115043830.928    21892067.305    89644397.263  
 21  1  7 23  5 23.0000000  0  9G30G 8G28G 5G 9G27G 7G13G14
  20652557.789   108530032.327    20652565.324    84568853.356  
  21394193.914   112427258.357    21394202.207    87605743.688  
  22302886.180   117202494.077                                  
  23969266.219   125959201.516    23969272.246    98150167.451  
  23351865.922   122714795.873    23351873.938    95622053.779  
  23063393.117   121198938.971    23063401.820    94440819.793  
  20502040.227   107739020.874    20502045.012    83952512.919  
  23381686.969   122871658.199                                  
  21891542.422   115041101.989    21891548.273    89642270.816  
 21  1  7 23  5 24.0000000  0  9G30G 8G28G 5G 9G27G 7G13G14
  20652315.102   108528759.049    20652323.168    84567861.194  
  21394218.047   112427386.375    21394226.520    87605843.443  
  22302382.742   117199847.775                                  
  23969602.406   125960973.624    23969609.734    98151548.320  
  23352565.648   122718469.864    23352573.371    95624916.625  
  23063873.914   121201461.946    23063881.996    94442785.747  
  20502158.375   107739641.071    20502163.109    83952996.187  
  23381076.492   122868449.716                                  
  21891022.727   115038373.393    21891028.699    89640144.636  
 21  1  7 23  5 25.0000000  0  9G30G 8G28G 5G 9G27G 7G13G14
  20652073.156   108527486.176    20652081.313    84566869.346  
  21394242.469   112427515.119    21394251.125    87605943.760  
  22301879.227   117197201.748                                  
  23969938.203   125962746.297    23969946.766    98152929.623  
  23353264.563   122722144.033    23353272.113    95627779.610  
  23064354.008   121203985.487    23064362.043    94444752.140  
  20502276.305   107740261.704    20502281.359    83953479.800  
  23380466.055   122865241.548                                  
  21890503.563   115035645.147    21890509.273    89638018.734  
 21  1  7 23  5 26.0000000  0  9G30G 8G28G 5G 9G27G 7G13G14
  20651830.891   108526213.709    20651838.781    84565877.813  
  21394267.047   112427644.581    21394275.289    87606044.638  
  22301375.852   117194556.116                                  
  23970276.711   125964519.461    23970284.289    98154311.306  
  23353963.938   122725818.469    23353971.395    95630642.810  
  23064833.883   121206509.564    23064842.422    94446718.954  
  20502394.492   107740882.771    20502399.547    83953963.741  
  23379855.813   122862033.699                                  
  21889984.406   115032917.275    21889990.281    89635893.117  
 21  1  7 23  5 27.0000000  0  9G30G 8G28G 5G 9G27G 7G13G14
  20651588.844   108524941.621    20651596.730    84564886.574  
  21394291.914   112427774.742    21394300.273    87606146.069  
  22300872.414   117191910.734                                  
  23970616.078   125966293.093    23970621.676    98155693.353  
  23354663.938   122729493.073    23354670.949    95633506.141  
  23065313.953   121209034.138    23065322.719    94448686.153  
  20502512.930   107741504.249    20502518.117    83954448.015  
  23379245.492   122858826.141                                  
  21889465.570   115030189.730    21889471.242    89633767.759  
 21  1  7 23  5 28.0000000  0  9G30G 8G28G 5G 9G27G 7G13G14
  20651347.039   108523669.988    20651354.555    84563895.696  
  21394316.727   112427905.626    21394325.402    87606248.055  
  22300369.430   117189265.742                                  
  23970954.211   125968067.279    23970959.402    98157075.841  
  23355362.898   122733167.943    23355370.250    95636369.675  
  23065795.422   121211559.289    23065803.180    94450653.805  
  20502631.320   107742126.203    20502635.973    83954932.657  
  23378634.977   122855618.979                                  
  21888946.609   115027462.572    21888952.090    89631642.706  
 21  1  7 23  5 29.0000000  0  9G30G 8G28G 5G 9G27G 7G13G14
  20651104.961   108522398.732    20651112.895    84562905.106  
  21394341.727   112428037.172    21394350.352    87606350.562  
  22299865.797   117186621.035                                  
  23971291.164   125969841.960    23971297.254    98158458.708  
  23356062.461   122736842.976    23356069.387    95639233.340  
  23066276.250   121214084.945    23066283.727    94452621.844  
  20502749.391   107742748.550    20502754.613    83955417.596  
  23378024.281   122852412.059                                  
  21888427.703   115024735.719    21888433.402    89629517.886  
 21  1  7 23  5 30.0000000  0  9G30G 8G28G 5G 9G27G 7G13G14
  20650863.055   108521127.841    20650870.785    84561914.799  
  21394366.844   112428169.454    21394375.223    87606453.634  
  22299362.703   117183976.639                                  
  23971628.000   125971617.152    23971634.941    98159841.984  
  23356761.273   122740518.240    23356769.176    95642097.176  
  23066757.172   121216611.158    23066764.949    94454590.321  
  20502868.453   107743371.327    20502872.672    83955902.877  
  23377415.063   122849205.470                                  
  21887908.797   115022009.236    21887914.289    89627393.354  
 21  1  7 23  5 31.0000000  0  9G30G 8G28G 5G 9G27G 7G13G14
  20650621.617   108519857.381    20650629.266    84560924.831  
  21394392.195   112428302.428    21394401.152    87606557.251  
  22298859.164   117181332.588                                  
  23971965.047   125973392.842    23971972.809    98161225.630  
  23357460.656   122744193.768    23357468.621    95644961.222  
  23067237.133   121219137.878    23067245.051    94456559.192  
  20502987.063   107743994.513    20502992.109    83956388.480  
  23376803.930   122845999.196                                  
  21887390.789   115019283.103    21887395.793    89625269.093  
 21  1  7 23  5 32.0000000  0  9G30G 8G28G 5G 9G27G 7G13G14
  20650379.664   108518587.345    20650387.887    84559935.185  
  21394417.781   112428436.168    21394426.219    87606661.461  
  22298356.352   117178688.842                                  
  23972303.141   125975169.075    23972310.715    98162609.706  
  23358160.375   122747869.486    23358167.871    95647825.419  
  23067719.172   121221665.175    23067726.609    94458528.518  
  20503105.016   107744618.154    20503110.430    83956874.436  
  23376194.352   122842793.225                                  
  21886871.766   115016557.319    21886876.977    89623145.110  
 21  1  7 23  5 33.0000000  0  9G30G 8G28G 5G 9G27G 7G13G14
  20650138.180   108517317.660    20650145.887    84558945.824  
  21394442.805   112428570.580    21394451.598    87606766.201  
  22297853.125   117176045.403                                  
  23972642.492   125976945.787    23972648.715    98163994.143  
  23358859.594   122751545.372    23358867.844    95650689.743  
  23068200.008   121224192.964    23068207.621    94460498.217  
  20503224.234   107745242.206    20503229.004    83957360.708  
  23375584.648   122839587.586                                  
  21886352.945   115013831.857    21886358.461    89621021.374  
 21  1  7 23  5 34.0000000  0  9G30G 8G28G 5G 9G27G 7G13G14
  20649896.758   108516048.433    20649904.570    84557956.818  
  21394469.031   112428705.711    21394477.488    87606871.499  
  22297350.398   117173402.324                                  
  23972981.398   125978723.026    23972986.547    98165379.004  
  23359559.547   122755221.522    23359566.832    95653554.274  
  23068680.703   121226721.323    23068688.527    94462468.370  
  20503342.742   107745866.707    20503347.828    83957847.334  
  23374974.359   122836382.274                                  
  21885834.648   115011106.798    21885840.031    89618897.949  
 21  1  7 23  5 35.0000000  0  9G30G 8G28G 5G 9G27G 7G13G14
  20649654.711   108514779.576    20649663.141    84556968.093  
  21394494.828   112428841.568    21394503.488    87606977.359  
  22296846.836   117170759.534                                  
  23973319.711   125980500.776    23973325.000    98166764.267  
  23360259.469   122758897.890    23360266.270    95656418.980  
  23069161.695   121229250.226    23069169.484    94464438.946  
  20503461.906   107746491.623    20503466.973    83958334.278  
  23374364.461   122833177.273                                  
  21885315.805   115008382.074    21885321.891    89616774.790  
 21  1  7 23  5 36.0000000  0  9G30G 8G28G 5G 9G27G 7G13G14
  20649413.555   108513511.122    20649421.645    84555979.687  
  21394521.000   112428978.100    21394529.332    87607083.747  
  22296344.617   117168117.079                                  
  23973657.016   125982278.972    23973663.320    98168149.883  
  23360958.383   122762574.472    23360966.172    95659283.848  
  23069643.188   121231779.607    23069651.160    94466409.890  
  20503580.930   107747116.943    20503585.727    83958821.542  
  23373754.648   122829972.589                                  
  21884797.602   115005657.658    21884803.211    89614651.869  
 21  1  7 23  5 37.0000000  0  9G30G 8G28G 5G 9G27G 7G13G14
  20649172.227   108512243.059    20649180.656    84554991.585  
  21394547.227   112429115.371    21394555.426    87607190.708  
  22295842.148   117165474.935                                  
  23973995.234   125984057.734    23974001.555    98169535.934  
  23361658.195   122766251.250    23361666.234    95662148.869  
  23070124.594   121234309.554    23070132.563    94468381.279  
  20503699.969   107747742.699    20503705.004    83959309.139  
  23373144.438   122826768.206                                  
  21884279.070   115002933.647    21884284.723    89612529.261  
 21  1  7 23  5 38.0000000  0  9G30G 8G28G 5G 9G27G 7G13G14
  20648930.836   108510975.387    20648939.207    84554003.794  
  21394573.211   112429253.324    21394581.969    87607298.202  
  22295339.469   117162833.100                                  
  23974332.953   125985836.954    23974340.875    98170922.344  
  23362357.602   122769928.239    23362365.813    95665014.051  
  23070606.289   121236840.003    23070614.172    94470353.056  
  20503819.148   107748368.861    20503824.258    83959797.062  
  23372535.039   122823564.140                                  
  21883760.836   115000209.944    21883766.270    89610406.900  
 21  1  7 23  5 39.0000000  0  9G30G 8G28G 5G 9G27G 7G13G14
  20648689.953   108509708.153    20648697.805    84553016.338  
  21394599.484   112429391.990    21394608.199    87607406.256  
  22294836.469   117160191.618                                  
  23974672.313   125987616.738    23974679.531    98172309.179  
  23363058.156   122773605.449    23363065.453    95667879.405  
  23071087.828   121239371.038    23071095.727    94472325.293  
  20503938.234   107748995.481    20503943.250    83960285.335  
  23371926.023   122820360.404                                  
  21883242.797   114997486.618    21883247.871    89608284.825  
 21  1  7 23  5 40.0000000  0  9G30G 8G28G 5G 9G27G 7G13G14
  20648449.023   108508441.321    20648456.715    84552029.198  
  21394626.289   112429531.379    21394634.434    87607514.871  
  22294333.797   117157550.453                                  
  23975011.977   125989397.028    23975018.777    98173696.415  
  23363757.414   122777282.925    23363765.125    95670744.972  
  23071569.375   121241902.578    23071577.223    94474297.917  
  20504057.844   107749622.527    20504062.277    83960773.946  
  23371315.703   122817156.985                                  
  21882724.133   114994763.644    21882729.680    89606163.027  
 21  1  7 23  5 41.0000000  0  9G30G 8G28G 5G 9G27G 7G13G14
  20648208.188   108507174.880    20648216.223    84551042.362  
  21394652.648   112429671.464    21394660.824    87607624.030  
  22293830.820   117154909.612                                  
  23975351.578   125991177.794    23975357.488    98175084.021  
  23364457.602   122780960.560    23364464.688    95673610.657  
  23072051.813   121244434.664    23072059.215    94476270.974  
  20504176.875   107750249.979    20504181.883    83961262.869  
  23370706.969   122813953.897                                  
  21882206.055   114992041.009    21882212.430    89604041.497  
 21  1  7 23  5 42.0000000  0  9G30G 8G28G 5G 9G27G 7G13G14
  20647966.906   108505908.839    20647974.926    84550055.830  
  21394679.547   112429812.276    21394687.855    87607733.752  
  22293328.859   117152269.091                                  
  23975690.016   125992959.104    23975695.980    98176472.060  
  23365157.492   122784638.462    23365164.691    95676476.559  
  23072533.391   121246967.283    23072541.063    94478244.443  
  20504296.813   107750877.868    20504301.352    83961752.134  
  23370096.828   122810751.134                                  
  21881688.438   114989318.727    21881694.066    89601920.242  
 21  1  7 23  5 43.0000000  0  9G30G 8G28G 5G 9G27G 7G13G14
  20647726.375   108504643.211    20647734.098    84549069.636  
  21394706.813   112429953.814    21394714.910    87607844.042  
  22292826.828   117149628.888                                  
  23976028.344   125994740.899    23976035.105    98177860.476  
  23365857.273   122788316.544    23365864.992    95679342.598  
  23073014.867   121249500.444    23073023.234    94480218.341  
  20504415.883   107751506.176    20504420.984    83962241.727  
  23369487.445   122807548.667                                  
  21881170.289   114986596.806    21881175.676    89599799.268  
 21  1  7 23  5 44.0000000  0  9G30G 8G28G 5G 9G27G 7G13G14
  20647485.492   108503377.961    20647493.109    84548083.721  
  21394733.656   112430096.036    21394742.383    87607954.866  
  22292324.242   117146989.016                                  
  23976367.242   125996523.199    23976374.668    98179249.284  
  23366557.172   122791994.845    23366564.664    95682208.804  
  23073497.414   121252034.122    23073505.012    94482192.634  
  20504535.836   107752134.916    20504540.570    83962731.652  
  23368877.133   122804346.482                                  
  21880652.359   114983875.213    21880657.926    89597678.549  
 21  1  7 23  5 45.0000000  0  9G30G 8G28G 5G 9G27G 7G13G14
  20647244.406   108502113.144    20647253.090    84547098.155  
  21394760.891   112430238.990    21394769.738    87608066.262  
  22291821.945   117144349.450                                  
  23976705.813   125998306.009    23976713.789    98180638.482  
  23367256.422   122795673.303    23367264.449    95685075.137  
  23073980.117   121254568.332    23073987.535    94484167.342  
  20504655.641   107752764.068    20504660.523    83963221.898  
  23368268.680   122801144.654                                  
  21880134.516   114981153.988    21880139.848    89595558.111  
 21  1  7 23  5 46.0000000  0  9G30G 8G28G 5G 9G27G 7G13G14
  20647004.070   108500848.719    20647012.555    84546112.884  
  21394788.148   112430382.677    21394796.934    87608178.221  
  22291319.773   117141710.244                                  
  23977046.555   126000089.386    23977052.910    98182028.123  
  23367956.711   122799352.068    23367964.465    95687941.707  
  23074462.336   121257103.097    23074469.848    94486142.483  
  20504775.414   107753393.675    20504780.023    83963712.504  
  23367659.086   122797943.141                                  
  21879617.188   114978433.141    21879622.457    89593437.970  
 21  1  7 23  5 47.0000000  0  9G30G 8G28G 5G 9G27G 7G13G14
  20646763.281   108499584.653    20646771.563    84545127.898  
  21394815.727   112430527.015    21394824.273    87608290.698  
  22290817.164   117139071.300                                  
  23977386.563   126001873.140    23977392.770    98183418.051  
  23368657.172   122803031.011    23368664.762    95690808.415  
  23074944.250   121259638.358    23074951.984    94488118.010  
  20504895.563   107754023.652    20504900.055    83964203.390  
  23367049.539   122794741.903                                  
  21879098.688   114975712.568    21879105.145    89591318.046  
 21  1  7 23  5 48.0000000  0  9G30G 8G28G 5G 9G27G 7G13G14
  20646523.203   108498321.047    20646531.211    84544143.273  
  21394843.547   112430672.141    21394851.703    87608403.781  
  22290315.508   117136432.742                                  
  23977725.930   126003657.513    23977732.512    98184808.475  
  23369357.477   122806710.160    23369364.984    95693675.282  
  23075426.797   121262174.227    23075434.824    94490094.014  
  20505015.195   107754654.109    20505020.180    83964694.656  
  23366440.984   122791541.061                                  
  21878581.031   114972992.424    21878586.859    89589198.451  
 21  1  7 23  5 49.0000000  0  9G30G 8G28G 5G 9G27G 7G13G14
  20646282.453   108497057.822    20646290.543    84543158.939  
  21394870.891   112430817.975    21394879.027    87608517.415  
  22289813.633   117133794.466                                  
  23978065.344   126005442.360    23978071.156    98186199.267  
  23370057.664   122810389.540    23370065.008    95696542.332  
  23075909.094   121264710.543    23075917.492    94492070.358  
  20505135.570   107755284.978    20505140.113    83965186.246  
  23365831.961   122788340.455                                  
  21878064.172   114970272.602    21878069.633    89587079.117  
 21  1  7 23  5 50.0000000  0  9G30G 8G28G 5G 9G27G 7G13G14
  20646042.445   108495795.020    20646050.504    84542174.936  
  21394898.945   112430964.522    21394907.488    87608631.610  
  22289311.109   117131156.548                                  
  23978404.023   126007227.735    23978411.148    98187590.474  
  23370757.281   122814069.138    23370765.457    95699409.549  
  23076392.766   121267247.461    23076400.410    94494047.183  
  20505255.469   107755916.271    20505260.441    83965678.158  
  23365222.656   122785140.224                                  
  21877546.313   114967553.142    21877551.488    89584960.052  
 21  1  7 23  5 51.0000000  0  9G30G 8G28G 5G 9G27G 7G13G14
  20645802.375   108494532.590    20645810.273    84541191.226  
  21394927.406   112431111.747    21394935.402    87608746.331  
  22288808.859   117128518.916                                  
  23978743.758   126009013.601    23978750.977    98188982.061  
  23371457.414   122817748.934    23371465.461    95702276.921  
  23076875.414   121269784.866    23076883.375    94496024.381  
  20505375.750   107756547.971    20505380.234    83966170.393  
  23364613.945   122781940.287                                  
  21877028.945   114964833.999    21877034.648    89582841.241  
 21  1  7 23  5 52.0000000  0  9G30G 8G28G 5G 9G27G 7G13G14
  20645562.211   108493270.570    20645570.047    84540207.828  
  21394955.484   112431259.755    21394963.926    87608861.659  
  22288307.266   117125881.629                                  
  23979084.398   126010800.015    23979090.750    98190374.067  
  23372157.602   122821428.997    23372165.305    95705144.499  
  23077358.453   121272322.838    23077366.484    94498002.017  
  20505495.672   107757180.112    20505500.691    83966662.969  
  23364004.602   122778740.665                                  
  21876511.523   114962115.239    21876516.895    89580722.729  
 21  1  7 23  5 53.0000000  0  9G30G 8G28G 5G 9G27G 7G13G14
  20645322.094   108492008.940    20645330.434    84539224.741  
  21394983.164   112431408.428    21394991.625    87608977.508  
  22287805.531   117123244.635                                  
  23979425.469   126012586.855    23979431.324    98191766.406  
  23372858.078   122825109.171    23372866.090    95708012.162  
  23077841.609   121274861.294    23077849.082    94499980.036  
  20505615.844   107757812.643    20505621.328    83967155.850  
  23363396.273   122775541.330                                  
  21875994.180   114959396.796    21875999.488    89578604.463  
 21  1  7 23  5 54.0000000  0  9G30G 8G28G 5G 9G27G 7G13G14
  20645081.586   108490747.734    20645090.008    84538241.988  
  21395012.273   112431557.830    21395020.125    87609093.930  
  22287303.625   117120608.003                                  
  23979765.328   126014374.238    23979771.348    98193159.165  
  23373558.672   122828789.632    23373566.676    95710880.056  
  23078324.820   121277400.312    23078332.191    94501958.490  
  20505736.500   107758445.642    20505741.676    83967649.101  
  23362787.711   122772342.395                                  
  21875477.047   114956678.739    21875482.473    89576486.494  
 21  1  7 23  5 55.0000000  0  9G30G 8G28G 5G 9G27G 7G13G14
  20644842.023   108489486.918    20644849.754    84537259.533  
  21395040.320   112431707.922    21395049.289    87609210.882  
  22286802.477   117117971.646                                  
  23980105.734   126016162.139    23980111.172    98194552.330  
  23374258.961   122832470.275    23374266.949    95713748.094  
  23078807.453   121279939.841    23078815.590    94503937.344  
  20505857.648   107759079.039    20505862.484    83968142.657  
  23362179.367   122769143.711                                  
  21874959.523   114953961.005    21874965.590    89574368.786  
 21  1  7 23  5 56.0000000  0  9G30G 8G28G 5G 9G27G 7G13G14
  20644602.109   108488226.494    20644609.746    84536277.384  
  21395069.555   112431858.725    21395077.602    87609328.392  
  22286300.516   117115335.650                                  
  23980444.703   126017950.559    23980451.512    98195945.906  
  23374959.242   122836151.163    23374967.629    95716616.312  
  23079291.016   121282479.938    23079299.148    94505916.639  
  20505978.047   107759712.881    20505982.852    83968636.559  
  23361571.031   122765945.344                                  
  21874442.484   114951243.656    21874448.250    89572251.369  
 21  1  7 23  5 57.0000000  0  9G30G 8G28G 5G 9G27G 7G13G14
  20644361.734   108486966.478    20644369.895    84535295.553  
  21395098.109   112432010.229    21395106.109    87609446.446  
  22285798.859   117112699.936                                  
  23980784.477   126019739.454    23980791.836    98197339.852  
  23375659.461   122839832.239    23375667.887    95719484.685  
  23079774.383   121285020.532    23079782.473    94507896.325  
  20506098.570   107760347.123    20506103.594    83969130.776  
  23360961.789   122762747.309                                  
  21873925.281   114948526.618    21873931.016    89570134.195  
 21  1  7 23  5 58.0000000  0  9G30G 8G28G 5G 9G27G 7G13G14
  20644122.734   108485706.870    20644131.027    84534314.043  
  21395127.039   112432162.443    21395134.887    87609565.058  
  22285297.641   117110064.562                                  
  23981125.633   126021528.845    23981132.727    98198734.180  
  23376360.570   122843513.526    23376368.453    95722353.218  
  23080258.547   121287561.683    23080266.051    94509876.442  
  20506219.313   107760981.802    20506224.340    83969625.332  
  23360353.188   122759549.630                                  
  21873408.852   114945809.950    21873414.703    89568017.312  
 21  1  7 23  5 59.0000000  0  9G30G 8G28G 5G 9G27G 7G13G14
  20643883.445   108484447.656    20643890.809    84533332.837  
  21395155.945   112432315.396    21395164.230    87609684.241  
  22284796.516   117107429.509                                  
  23981466.898   126023318.759    23981473.395    98200128.913  
  23377061.000   122847195.026    23377068.648    95725221.914  
  23080741.656   121290103.364    23080749.711    94511856.967  
  20506339.984   107761616.906    20506345.195    83970120.212  
  23359745.188   122756352.197                                  
  21872891.828   114943093.611    21872897.625    89565900.682  
 21  1  7 23  6  0.0000000  0  9G30G 8G28G 5G 9G27G 7G13G14
  20643643.773   108483188.863    20643651.672    84532351.958  
  21395185.242   112432469.043    21395193.395    87609803.967  
  22284294.711   117104794.804                                  
  23981808.023   126025109.195    23981814.117    98201524.064  
  23377761.219   122850876.741    23377769.242    95728090.787  
  23081225.352   121292645.539    23081233.652    94513837.884  
  20506460.789   107762252.445    20506466.188    83970615.434  
  23359136.844   122753155.135                                  
  21872374.148   114940377.647    21872380.492    89563784.348  
 21  1  7 23  6  1.0000000  0  9G30G 8G28G 5G 9G27G 7G13G14
  20643404.469   108481930.475    20643411.922    84531371.397  
  21395214.336   112432623.418    21395222.762    87609924.257  
  22283793.742   117102160.402                                  
  23982148.977   126026900.117    23982154.563    98202919.597  
  23378462.594   122854558.698    23378469.988    95730959.837  
  23081709.266   121295188.308    23081717.215    94515819.261  
  20506582.172   107762888.412    20506587.195    83971110.997  
  23358528.688   122749958.404                                  
  21871858.031   114937662.051    21871863.957    89561668.304  
 21  1  7 23  6  2.0000000  0  9G30G 8G28G 5G 9G27G 7G13G14
  20643164.750   108480672.473    20643172.641    84530391.134  
  21395244.414   112432778.483    21395252.070    87610045.090  
  22283291.953   117099526.312                                  
  23982489.148   126028691.555    23982495.703    98204315.528  
  23379163.258   122858240.852    23379170.742    95733829.046  
  23082193.188   121297731.560    23082200.953    94517801.018  
  20506703.445   107763524.801    20506708.227    83971606.887  
  23357919.469   122746761.966                                  
  21871341.227   114934946.781    21871347.125    89559552.511  
 21  1  7 23  6  3.0000000  0  9G30G 8G28G 5G 9G27G 7G13G14
  20642925.320   108479414.879    20642933.625    84529411.194  
  21395273.461   112432934.232    21395281.754    87610166.450  
  22282791.484   117096892.562                                  
  23982829.328   126030483.490    23982836.570    98205711.842  
  23379863.734   122861923.227    23379871.313    95736698.433  
  23082677.281   121300275.371    23082685.426    94519783.208  
  20506824.211   107764161.608    20506829.527    83972103.094  
  23357311.570   122743565.846                                  
  21870824.938   114932231.869    21870830.258    89557436.997  
 21  1  7 23  6  4.0000000  0  9G30G 8G28G 5G 9G27G 7G13G14
  20642686.023   108478157.685    20642694.039    84528431.559  
  21395303.570   112433090.717    21395311.586    87610288.381  
  22282289.461   117094259.111                                  
  23983170.344   126032275.962    23983177.492    98207108.566  
  23380565.000   122865605.786    23380572.348    95739567.957  
  23083161.602   121302819.693    23083169.480    94521765.792  
  20506945.664   107764798.879    20506950.730    83972599.671  
  23356703.422   122740370.074                                  
  21870308.195   114929517.311    21870313.734    89555321.752  
 21  1  7 23  6  5.0000000  0  9G30G 8G28G 5G 9G27G 7G13G14
  20642447.633   108476900.920    20642455.094    84527452.257  
  21395333.109   112433247.892    21395341.645    87610410.855  
  22281788.828   117091626.009                                  
  23983512.523   126034068.946    23983518.609    98208505.687  
  23381265.930   122869288.586    23381273.328    95742437.671  
  23083646.227   121305364.563    23083653.563    94523748.810  
  20507067.008   107765436.572    20507072.332    83973096.574  
  23356095.328   122737174.616                                  
  21869791.750   114926803.121    21869797.289    89553206.801  
 21  1  7 23  6  6.0000000  0  9G30G 8G28G 5G 9G27G 7G13G14
  20642207.813   108475644.520    20642216.066    84526473.244  
  21395363.391   112433405.774    21395371.402    87610533.885  
  22281287.977   117088993.207                                  
  23983854.742   126035862.413    23983860.289    98209903.193  
  23381965.883   122872971.569    23381974.328    95745307.528  
  23084130.609   121307909.921    23084138.555    94525732.202  
  20507188.422   107766074.669    20507193.148    83973593.790  
  23355487.570   122733979.457                                  
  21869274.984   114924089.230    21869281.094    89551092.081  
 21  1  7 23  6  7.0000000  0  9G30G 8G28G 5G 9G27G 7G13G14
  20641968.852   108474388.535    20641976.906    84525494.555  
  21395393.531   112433564.399    21395401.941    87610657.486  
  22280787.203   117086360.711                                  
  23984196.180   126037656.383    23984201.535    98211301.098  
  23382666.594   122876654.806    23382674.996    95748177.586  
  23084614.500   121310455.864    23084622.535    94527716.059  
  20507310.203   107766713.203    20507315.035    83974091.351  
  23354879.953   122730784.621                                  
  21868759.094   114921375.739    21868764.684    89548977.676  
 21  1  7 23  6  8.0000000  0  9G30G 8G28G 5G 9G27G 7G13G14
  20641730.063   108473132.988    20641738.012    84524516.208  
  21395423.938   112433723.774    21395432.355    87610781.674  
  22280285.594   117083728.592                                  
  23984537.195   126039450.878    23984542.914    98212699.411  
  23383367.602   122880338.254    23383376.344    95751047.806  
  23085098.914   121313002.385    23085107.395    94529700.362  
  20507431.547   107767352.189    20507436.605    83974589.263  
  23354272.266   122727590.128                                  
  21868242.648   114918662.611    21868248.160    89546863.549  
 21  1  7 23  6  9.0000000  0  9G30G 8G28G 5G 9G27G 7G13G14
  20641490.945   108471877.809    20641499.039    84523538.147  
  21395454.602   112433883.816    21395462.762    87610906.379  
  22279785.508   117081096.753                                  
  23984878.023   126041245.823    23984884.586    98214098.071  
  23384069.109   122884021.893    23384077.098    95753918.172  
  23085584.070   121315549.327    23085591.773    94531684.990  
  20507553.500   107767991.529    20507558.152    83975087.452  
  23353663.516   122724395.897                                  
  21867726.688   114915949.777    21867732.070    89544749.652  
 21  1  7 23  6 10.0000000  0  9G30G 8G28G 5G 9G27G 7G13G14
  20641252.125   108470623.016    20641260.293    84522560.383  
  21395484.969   112434044.571    21395493.348    87611031.649  
  22279284.305   117078465.227                                  
  23985219.094   126043041.324    23985226.594    98215497.164  
  23384769.578   122887705.739    23384777.867    95756788.703  
  23086069.109   121318096.856    23086076.348    94533670.076  
  20507675.070   107768631.336    20507680.031    83975586.005  
  23353055.945   122721202.040                                  
  21867210.398   114913237.329    21867216.352    89542636.060  
 21  1  7 23  6 11.0000000  0  9G30G 8G28G 5G 9G27G 7G13G14
  20641013.539   108469368.647    20641021.477    84521582.960  
  21395516.070   112434206.086    21395524.148    87611157.506  
  22278783.898   117075834.068                                  
  23985560.922   126044837.289    23985568.043    98216896.614  
  23385470.617   122891389.816    23385478.684    95759659.412  
  23086553.547   121320644.912    23086561.074    94535655.578  
  20507796.695   107769271.561    20507801.582    83976084.877  
  23352448.367   122718008.507                                  
  21866694.375   114910525.237    21866699.934    89540522.743  
 21  1  7 23  6 12.0000000  0  9G30G 8G28G 5G 9G27G 7G13G14
  20640774.711   108468114.663    20640782.938    84520605.830  
  21395546.641   112434368.269    21395555.434    87611283.882  
  22278283.234   117073203.180                                  
  23985903.797   126046633.749    23985909.891    98218296.449  
  23386172.313   122895074.067    23386179.844    95762530.256  
  23087038.445   121323193.489    23087046.211    94537641.479  
  20507918.648   107769912.191    20507923.297    83976584.072  
  23351840.727   122714815.269                                  
  21866178.391   114907813.470    21866183.828    89538409.675  
 21  1  7 23  6 13.0000000  0  9G30G 8G28G 5G 9G27G 7G13G14
  20640536.297   108466861.079    20640544.582    84519629.008  
  21395577.797   112434531.188    21395585.824    87611410.832  
  22277782.398   117070572.644                                  
  23986246.508   126048430.779    23986251.840    98219696.730  
  23386872.586   122898758.557    23386881.340    95765401.284  
  23087523.797   121325742.573    23087531.133    94539627.779  
  20508040.422   107770553.260    20508045.957    83977083.605  
  23351233.492   122711622.350                                  
  21865662.125   114905102.076    21865668.152    89536296.899  
 21  1  7 23  6 14.0000000  0  9G30G 8G28G 5G 9G27G 7G13G14
  20640297.805   108465607.912    20640306.004    84518652.512  
  21395608.875   112434694.792    21395617.262    87611538.317  
  22277282.641   117067942.431                                  
  23986587.398   126050228.224    23986593.652    98221097.345  
  23387574.180   122902443.204    23387582.531    95768272.443  
  23088008.594   121328292.213    23088016.102    94541614.514  
  20508162.398   107771194.738    20508168.020    83977583.457  
  23350625.633   122708429.750                                  
  21865146.453   114902391.000    21865151.922    89534184.374  
 21  1  7 23  6 15.0000000  0  9G30G 8G28G 5G 9G27G 7G13G14
  20640059.555   108464355.147    20640067.371    84517676.337  
  21395640.086   112434859.118    21395647.910    87611666.361  
  22276781.664   117065312.529                                  
  23986929.086   126052026.258    23986936.016    98222498.414  
  23388275.563   122906128.146    23388283.332    95771143.826  
  23088493.938   121330842.379    23088501.949    94543601.658  
  20508284.883   107771836.662    20508290.078    83978083.658  
  23350017.234   122705237.494                                  
  21864630.906   114899680.312    21864636.418    89532072.150  
 21  1  7 23  6 16.0000000  0  9G30G 8G28G 5G 9G27G 7G13G14
  20639821.188   108463102.786    20639829.191    84516700.471  
  21395671.461   112435024.138    21395680.078    87611794.951  
  22276281.438   117062682.977                                  
  23987271.023   126053824.797    23987278.316    98223899.875  
  23388976.555   122909813.308    23388984.750    95774015.376  
  23088979.148   121333393.088    23088986.949    94545589.221  
  20508406.813   107772479.014    20508412.203    83978584.191  
  23349410.469   122702045.547                                  
  21864114.219   114896969.984    21864120.133    89529960.209  
 21  1  7 23  6 17.0000000  0  9G30G 8G28G 5G 9G27G 7G13G14
  20639582.906   108461850.832    20639591.051    84515724.921  
  21395702.719   112435189.870    21395711.309    87611924.089  
  22275781.477   117060053.708                                  
  23987613.516   126055623.773    23987620.664    98225301.670  
  23389677.938   122913498.614    23389686.219    95776887.044  
  23089465.219   121335944.294    23089472.707    94547577.172  
  20508529.266   107773121.765    20508534.230    83979085.033  
  23348802.883   122698853.893                                  
  21863599.148   114894259.980    21863604.723    89527848.520  
 21  1  7 23  6 18.0000000  0  9G30G 8G28G 5G 9G27G 7G13G14
  20639345.008   108460599.248    20639352.852    84514749.663  
  21395734.781   112435356.301    21395742.715    87612053.775  
  22275281.055   117057424.764                                  
  23987957.289   126057423.297    23987963.211    98226703.889  
  23390378.648   122917184.177    23390387.121    95779758.908  
  23089951.039   121338496.044    23089958.438    94549565.551  
  20508651.633   107773764.953    20508657.328    83979586.220  
  23348195.797   122695662.574                                  
  21863083.164   114891550.317    21863089.336    89525737.094  
 21  1  7 23  6 19.0000000  0  9G30G 8G28G 5G 9G27G 7G13G14
  20639106.820   108459348.111    20639114.430    84513774.748  
  21395766.453   112435523.463    21395774.715    87612184.031  
  22274780.633   117054796.153                                  
  23988299.688   126059223.298    23988305.293    98228106.481  
  23391080.375   122920869.921    23391088.516    95782630.913  
  23090436.547   121341048.362    23090444.430    94551554.368  
  20508773.773   107774408.572    20508779.055    83980087.741  
  23347588.641   122692471.561                                  
  21862567.430   114888841.033    21862573.691    89523625.964  
 21  1  7 23  6 20.0000000  0  9G30G 8G28G 5G 9G27G 7G13G14
  20638868.594   108458097.380    20638876.730    84512800.156  
  21395798.484   112435691.357    21395806.363    87612314.859  
  22274280.391   117052167.869                                  
  23988642.383   126061023.836    23988648.098    98229509.493  
  23391782.313   122924555.914    23391790.203    95785503.115  
  23090922.313   121343601.192    23090929.910    94553543.589  
  20508897.023   107775052.620    20508901.770    83980589.601  
  23346981.906   122689280.906                                  
  21862052.734   114886132.102    21862058.535    89521515.106  
 21  1  7 23  6 21.0000000  0  9G30G 8G28G 5G 9G27G 7G13G14
  20638631.156   108456847.047    20638638.816    84511825.872  
  21395830.352   112435859.979    21395838.977    87612446.254  
  22273780.281   117049539.937                                  
  23988984.594   126062824.902    23988990.844    98230912.922  
  23392484.016   122928242.121    23392491.590    95788375.479  
  23091408.516   121346154.563    23091416.066    94555533.229  
  20509019.211   107775697.105    20509024.789    83981091.791  
  23346374.430   122686090.586                                  
  21861536.563   114883423.540    21861542.879    89519404.538  
 21  1  7 23  6 22.0000000  0  9G30G 8G28G 5G 9G27G 7G13G14
  20638393.063   108455597.094    20638401.008    84510851.882  
  21395862.773   112436029.299    21395871.063    87612578.190  
  22273280.117   117046912.288                                  
  23989326.750   126064626.390    23989333.613    98232316.676  
  23393184.891   122931928.493    23393192.969    95791247.983  
  23091893.938   121348708.436    23091901.875    94557523.261  
  20509142.070   107776341.998    20509146.984    83981594.305  
  23345767.422   122682900.527                                  
  21861021.453   114880715.299    21861027.313    89517294.223  
 21  1  7 23  6 23.0000000  0  9G30G 8G28G 5G 9G27G 7G13G14
  20638155.773   108454347.566    20638163.301    84509878.226  
  21395894.875   112436199.276    21395903.164    87612710.644  
  22272779.734   117044284.969                                  
  23989669.922   126066428.450    23989676.871    98233720.883  
  23393887.133   122935615.088    23393894.367    95794120.652  
  23092380.242   121351262.847    23092387.793    94559513.707  
  20509265.031   107776987.294    20509269.840    83982097.137  
  23345160.414   122679710.823                                  
  21860506.133   114878007.409    21860512.168    89515184.175  
 21  1  7 23  6 24.0000000  0  9G30G 8G28G 5G 9G27G 7G13G14
  20637917.508   108453098.466    20637925.234    84508904.899  
  21395927.773   112436370.015    21395935.828    87612843.684  
  22272280.508   117041658.008                                  
  23990013.438   126068230.990    23990019.758    98235125.461  
  23394588.242   122939301.933    23394595.906    95796993.521  
  23092866.375   121353817.805    23092874.141    94561504.588  
  20509387.578   107777633.062    20509392.441    83982600.330  
  23344553.875   122676521.448                                  
  21859990.914   114875299.914    21859997.469    89513074.446  
 21  1  7 23  6 25.0000000  0  9G30G 8G28G 5G 9G27G 7G13G14
  20637680.031   108451849.721    20637688.266    84507931.850  
  21395960.188   112436541.417    21395968.352    87612977.245  
  22271780.008   117039031.335                                  
  23990356.852   126070034.032    23990362.523    98236530.427  
  23395290.570   122942988.969    23395298.102    95799866.535  
  23093352.789   121356373.283    23093360.219    94563495.866  
  20509510.813   107778279.224    20509515.805    83983103.836  
  23343946.789   122673332.386                                  
  21859476.016   114872592.732    21859481.730    89510964.952  
 21  1  7 23  6 26.0000000  0  9G30G 8G28G 5G 9G27G 7G13G14
  20637442.109   108450601.400    20637450.145    84506959.126  
  21395993.133   112436713.554    21396001.117    87613111.378  
  22271280.289   117036404.994                                  
  23990700.008   126071837.598    23990706.645    98237935.804  
  23395991.656   122946676.215    23395999.598    95802739.707  
  23093838.680   121358929.267    23093846.426    94565487.542  
  20509634.016   107778925.801    20509639.020    83983607.660  
  23343339.594   122670143.631                                  
  21858961.164   114869885.907    21858966.641    89508855.738  
 21  1  7 23  6 27.0000000  0  9G30G 8G28G 5G 9G27G 7G13G14
  20637204.859   108449353.476    20637212.504    84505986.722  
  21396026.055   112436886.402    21396033.988    87613246.062  
  22270781.117   117033778.954                                  
  23991043.000   126073641.617    23991049.754    98239341.539  
  23396693.594   122950363.632    23396701.684    95805613.016  
  23094325.313   121361485.776    23094333.371    94567479.625  
  20509756.836   107779572.806    20509761.652    83984111.820  
  23342733.320   122666955.177                                  
  21858445.766   114867179.428    21858451.438    89506746.800  
 21  1  7 23  6 28.0000000  0  9G30G 8G28G 5G 9G27G 7G13G14
  20636967.625   108448105.956    20636975.051    84505014.627  
  21396059.000   112437059.958    21396066.879    87613381.300  
  22270281.563   117031153.269                                  
  23991385.063   126075446.195    23991393.328    98240747.705  
  23397394.867   122954051.320    23397403.160    95808486.538  
  23094811.898   121364042.819    23094819.793    94569472.130  
  20509880.289   107780220.243    20509885.555    83984616.319  
  23342126.586   122663767.091                                  
  21857931.094   114864473.321    21857936.695    89504638.140  
 21  1  7 23  6 29.0000000  0  9G30G 8G28G 5G 9G27G 7G13G14
  20636730.297   108446858.878    20636738.035    84504042.877  
  21396091.930   112437234.271    21396100.660    87613517.129  
  22269781.594   117028527.899                                  
  23991728.953   126077251.269    23991736.605    98242154.246  
  23398095.867   122957739.224    23398104.594    95811360.223  
  23095298.438   121366600.435    23095306.469    94571465.077  
  20510003.391   107780868.138    20510008.676    83985121.169  
  23341519.797   122660579.308                                  
  21857416.398   114861767.561    21857421.367    89502529.759  
 21  1  7 23  6 30.0000000  0  9G30G 8G28G 5G 9G27G 7G13G14
  20636492.789   108445612.149    20636500.863    84503071.402  
  21396125.250   112437409.260    21396133.586    87613653.487  
  22269282.328   117025902.820                                  
  23992072.430   126079056.826    23992079.758    98243561.175  
  23398798.398   122961427.284    23398806.277    95814234.034  
  23095785.219   121369158.552    23095793.297    94573458.409  
  20510126.719   107781516.404    20510131.789    83985626.309  
  23340913.180   122657391.849                                  
  21856901.000   114859062.148    21856906.672    89500421.643  
 21  1  7 23  6 31.0000000  0  9G30G 8G28G 5G 9G27G 7G13G14
  20636255.445   108444365.863    20636263.668    84502100.266  
  21396158.500   112437584.990    21396166.914    87613790.415  
  22268782.906   117023278.095                                  
  23992417.180   126080862.886    23992422.652    98244968.491  
  23399500.555   122965115.580    23399507.754    95817108.035  
  23096272.633   121371717.239    23096279.773    94575452.190  
  20510250.211   107782165.143    20510255.230    83986131.819  
  23340306.578   122654204.684                                  
  21856386.328   114856357.096    21856391.953    89498313.810  
 21  1  7 23  6 32.0000000  0  9G30G 8G28G 5G 9G27G 7G13G14
  20636018.094   108443119.952    20636026.211    84501129.434  
  21396192.391   112437761.363    21396200.105    87613927.847  
  22268283.953   117020653.652                                  
  23992761.781   126082669.425    23992766.895    98246376.185  
  23400202.414   122968804.054    23400210.008    95819982.171  
  23096759.836   121374276.354    23096767.383    94577446.299  
  20510373.688   107782814.252    20510379.113    83986637.617  
  23339700.508   122651017.853                                  
  21855871.430   114853652.382    21855876.934    89496206.248  
 21  1  7 23  6 33.0000000  0  9G30G 8G28G 5G 9G27G 7G13G14
  20635781.930   108441874.465    20635789.836    84500158.922  
  21396226.055   112437938.525    21396234.371    87614065.898  
  22267783.992   117018029.577                                  
  23993104.883   126084476.552    23993110.711    98247784.332  
  23400904.641   122972492.820    23400912.297    95822856.541  
  23097246.875   121376836.090    23097254.641    94579440.901  
  20510497.367   107783463.849    20510502.563    83987143.795  
  23339093.688   122647831.392                                  
  21855356.797   114850948.043    21855362.520    89494098.970  
 21  1  7 23  6 34.0000000  0  9G30G 8G28G 5G 9G27G 7G13G14
  20635544.875   108440629.398    20635552.773    84499188.745  
  21396259.906   112438116.368    21396268.043    87614204.478  
  22267284.406   117015405.838                                  
  23993448.477   126086284.097    23993455.578    98249192.812  
  23401606.156   122976181.774    23401614.094    95825731.050  
  23097734.023   121379396.317    23097741.711    94581435.885  
  20510621.406   107784113.874    20510626.313    83987650.307  
  23338487.820   122644645.229                                  
  21854842.711   114848244.068    21854848.461    89491991.976  
 21  1  7 23  6 35.0000000  0  9G30G 8G28G 5G 9G27G 7G13G14
  20635307.734   108439384.700    20635315.828    84498218.844  
  21396294.086   112438294.870    21396301.668    87614343.572  
  22266785.375   117012782.353                                  
  23993791.930   126088092.175    23993799.426    98250601.701  
  23402308.859   122979870.885    23402316.113    95828605.681  
  23098221.273   121381957.061    23098228.781    94583431.267  
  20510744.859   107784764.267    20510750.559    83988157.111  
  23337881.234   122641459.344                                  
  21854328.039   114845540.388    21854333.504    89489885.206  
 21  1  7 23  6 36.0000000  0  9G30G 8G28G 5G 9G27G 7G13G14
  20635071.305   108438140.479    20635078.934    84497249.320  
  21396327.891   112438474.190    21396336.266    87614483.303  
  22266286.523   117010159.326                                  
  23994136.289   126089900.847    23994143.328    98252011.050  
  23403010.891   122983560.292    23403018.211    95831480.544  
  23098708.078   121384518.416    23098716.617    94585427.127  
  20510868.570   107785415.184    20510874.160    83988664.315  
  23337275.141   122638273.895                                  
  21853813.430   114842837.169    21853819.211    89487778.802  
 21  1  7 23  6 37.0000000  0  9G30G 8G28G 5G 9G27G 7G13G14
  20634834.305   108436896.603    20634842.426    84496280.069  
  21396362.477   112438654.165    21396370.867    87614623.546  
  22265787.273   117007536.496                                  
  23994480.930   126091709.932    23994487.699    98253420.720  
  23403712.578   122987249.878    23403720.512    95834355.543  
  23099195.969   121387080.245    23099203.883    94587423.355  
  20510992.633   107786066.460    20510997.734    83989171.806  
  23336668.906   122635088.693                                  
  21853299.430   114840134.224    21853305.031    89485672.615  
 21  1  7 23  6 38.0000000  0  9G30G 8G28G 5G 9G27G 7G13G14
  20634597.875   108435653.140    20634605.543    84495311.136  
  21396396.633   112438834.855    21396404.594    87614764.345  
  22265287.984   117004914.062                                  
  23994826.141   126093519.521    23994832.207    98254830.787  
  23404414.195   122990939.663    23404422.922    95837230.696  
  23099683.234   121389642.587    23099691.629    94589419.986  
  20511116.430   107786718.172    20511121.957    83989679.631  
  23336062.484   122631903.791                                  
  21852785.414   114837431.645    21852790.770    89483566.708  
 21  1  7 23  6 39.0000000  0  9G30G 8G28G 5G 9G27G 7G13G14
  20634361.359   108434410.084    20634369.246    84494342.525  
  21396431.305   112439016.258    21396439.320    87614905.697  
  22264788.813   117002291.926                                  
  23995170.516   126095329.619    23995176.871    98256241.256  
  23405117.000   122994629.658    23405124.918    95840106.015  
  23100171.727   121392205.503    23100178.938    94591417.061  
  20511240.758   107787370.304    20511245.992    83990187.791  
  23335456.414   122628719.236                                  
  21852270.961   114834729.436    21852276.324    89481461.091  
 21  1  7 23  6 40.0000000  0  9G30G 8G28G 5G 9G27G 7G13G14
  20634124.969   108433167.401    20634132.539    84493374.200  
  21396465.820   112439198.348    21396473.930    87615047.583  
  22264290.164   116999670.093                                  
  23995514.813   126097140.191    23995520.371    98257652.100  
  23405818.930   122998319.833    23405826.852    95842981.477  
  23100659.938   121394768.890    23100666.918    94593414.513  
  20511364.992   107788022.833    20511370.133    83990696.254  
  23334851.250   122625534.953                                  
  21851756.609   114832027.533    21851762.344    89479355.711  
 21  1  7 23  6 41.0000000  0  9G30G 8G28G 5G 9G27G 7G13G14
  20633888.422   108431925.143    20633896.473    84492406.207  
  21396500.375   112439381.175    21396509.145    87615190.044  
  22263791.313   116997048.583                                  
  23995858.477   126098951.320    23995865.508    98259063.372  
  23406521.297   123002010.238    23406529.086    95845857.117  
  23101146.898   121397332.832    23101154.977    94595412.389  
  20511489.164   107788675.830    20511494.297    83991205.084  
  23334244.500   122622351.028                                  
  21851242.359   114829326.004    21851247.875    89477250.624  
 21  1  7 23  6 42.0000000  0  9G30G 8G28G 5G 9G27G 7G13G14
  20633652.016   108430683.298    20633659.980    84491438.533  
  21396535.773   112439564.722    21396543.727    87615333.072  
  22263292.031   116994427.424                                  
  23996204.289   126100762.927    23996209.809    98260475.015  
  23407223.297   123005700.826    23407231.832    95848732.902  
  23101634.609   121399897.259    23101642.371    94597410.643  
  20511613.719   107789329.242    20511618.637    83991714.234  
  23333639.055   122619167.438                                  
  21850728.258   114826624.834    21850734.043    89475145.819  
 21  1  7 23  6 43.0000000  0  9G30G 8G28G 5G 9G27G 7G13G14
  20633416.141   108429441.846    20633423.840    84490471.165  
  21396570.633   112439748.967    21396579.074    87615476.637  
  22262793.742   116991806.557                                  
  23996548.852   126102575.038    23996554.945    98261887.048  
  23407926.055   123009391.648    23407933.637    95851608.867  
  23102123.305   121402462.259    23102130.707    94599409.349  
  20511737.758   107789983.061    20511743.086    83992223.705  
  23333032.906   122615984.131                                  
  21850214.109   114823924.029    21850220.004    89473041.291  
 21  1  7 23  6 44.0000000  0  9G30G 8G28G 5G 9G27G 7G13G14
  20633179.766   108428200.809    20633187.684    84489504.126  
  21396605.719   112439933.915    21396614.219    87615620.753  
  22262294.813   116989186.050                                  
  23996894.344   126104387.672    23996900.090    98263299.481  
  23408628.516   123013082.713    23408636.477    95854485.023  
  23102611.086   121405027.792    23102619.059    94601408.461  
  20511862.523   107790637.324    20511867.449    83992733.521  
  23332427.633   122612801.223                                  
  21849700.336   114821223.563    21849706.457    89470937.036  
 21  1  7 23  6 45.0000000  0  9G30G 8G28G 5G 9G27G 7G13G14
  20632943.992   108426960.173    20632951.797    84488537.398  
  21396641.055   112440119.593    21396649.563    87615765.441  
  22261796.875   116986565.870                                  
  23997239.117   126106200.805    23997245.242    98264712.308  
  23409330.789   123016773.984    23409338.465    95857361.337  
  23103099.258   121407593.844    23103107.418    94603407.985  
  20511987.055   107791292.026    20511991.867    83993243.676  
  23331821.570   122609618.612                                  
  21849186.602   114818523.462    21849192.652    89468833.061  
 21  1  7 23  6 46.0000000  0  9G30G 8G28G 5G 9G27G 7G13G14
  20632707.555   108425719.918    20632715.234    84487570.963  
  21396676.266   112440305.915    21396684.840    87615910.624  
  22261297.570   116983945.955                                  
  23997583.156   126108014.386    23997589.832    98266125.498  
  23410033.227   123020465.354    23410041.301    95860237.729  
  23103587.852   121410160.388    23103595.492    94605407.891  
  20512111.781   107791947.118    20512116.711    83993754.139  
  23331216.914   122606436.279                                  
  21848672.984   114815823.675    21848679.020    89466729.331  
 21  1  7 23  6 47.0000000  0  9G30G 8G28G 5G 9G27G 7G13G14
  20632471.633   108424480.072    20632479.512    84486604.847  
  21396712.164   112440492.972    21396720.945    87616056.387  
  22260799.359   116981326.393                                  
  23997928.258   126109828.516    23997934.613    98267539.104  
  23410735.039   123024157.016    23410743.711    95863114.350  
  23104077.117   121412727.471    23104084.152    94607408.214  
  20512236.563   107792602.632    20512241.629    83994264.930  
  23330611.094   122603254.302                                  
  21848159.063   114813124.252    21848164.953    89464625.892  
 21  1  7 23  6 48.0000000  0  9G30G 8G28G 5G 9G27G 7G13G14
  20632236.156   108423240.648    20632244.195    84485639.067  
  21396748.172   112440680.757    21396756.426    87616202.715  
  22260300.773   116978707.163                                  
  23998274.078   126111643.140    23998280.137    98268953.098  
  23411438.078   123027848.892    23411446.258    95865991.135  
  23104565.609   121415295.123    23104572.859    94609408.983  
  20512361.031   107793258.591    20512366.539    83994776.063  
  23330005.203   122600072.643                                  
  21847645.555   114810425.219    21847651.520    89462522.748  
 21  1  7 23  6 49.0000000  0  9G30G 8G28G 5G 9G27G 7G13G14
  20632000.031   108422001.635    20632007.816    84484673.600  
  21396783.570   112440869.287    21396791.961    87616349.617  
  22259802.594   116976088.256                                  
  23998619.047   126113458.249    23998625.488    98270367.469  
  23412141.188   123031541.007    23412148.996    95868868.105  
  23105054.031   121417863.273    23105061.441    94611410.141  
  20512486.211   107793914.991    20512491.418    83995287.539  
  23329400.203   122596891.318                                  
  21847132.180   114807726.511    21847138.246    89460419.860  
 21  1  7 23  6 50.0000000  0  9G30G 8G28G 5G 9G27G 7G13G14
  20631764.180   108420763.010    20631772.027    84483708.443  
  21396819.828   112441058.497    21396827.898    87616497.055  
  22259304.211   116973469.677                                  
  23998965.305   126115273.909    23998971.309    98271782.264  
  23412843.289   123035233.260    23412851.688    95871745.187  
  23105543.234   121420431.949    23105550.148    94613411.708  
  20512611.234   107794571.814    20512616.133    83995799.355  
  23328794.906   122593710.289                                  
  21846619.242   114805028.173    21846624.762    89458317.259  
 21  1  7 23  6 51.0000000  0  9G30G 8G28G 5G 9G27G 7G13G14
  20631528.703   108419524.797    20631536.582    84482743.596  
  21396855.719   112441248.424    21396863.891    87616645.047  
  22258805.969   116970851.406                                  
  23999312.039   126117089.978    23999317.805    98273197.385  
  23413545.602   123038925.771    23413554.418    95874622.468  
  23106031.445   121423001.139    23106039.484    94615413.674  
  20512736.016   107795229.073    20512741.855    83996311.504  
  23328189.195   122590529.597                                  
  21846105.164   114802330.175    21846111.039    89456214.923  
 21  1  7 23  6 52.0000000  0  9G30G 8G28G 5G 9G27G 7G13G14
  20631293.320   108418286.976    20631301.027    84481779.064  
  21396892.234   112441439.049    21396900.195    87616793.586  
  22258307.789   116968233.447                                  
  23999657.000   126118906.600    23999663.105    98274612.933  
  23414248.555   123042618.426    23414256.730    95877499.856  
  23106520.227   121425570.847    23106528.250    94617416.044  
  20512861.484   107795886.702    20512866.691    83996823.945  
  23327584.422   122587349.216                                  
  21845592.336   114799632.517    21845597.891    89454112.852  
 21  1  7 23  6 53.0000000  0  9G30G 8G28G 5G 9G27G 7G13G14
  20631057.898   108417049.586    20631065.566    84480814.864  
  21396928.602   112441630.409    21396936.457    87616942.701  
  22257809.367   116965615.858                                  
  24000002.484   126120723.735    24000008.645    98276028.887  
  23414951.422   123046311.397    23414959.066    95880377.490  
  23107009.969   121428141.123    23107017.281    94619418.857  
  20512986.484   107796544.821    20512991.414    83997336.763  
  23326979.266   122584169.174                                  
  21845078.672   114796935.235    21845084.473    89452011.072  
 21  1  7 23  6 54.0000000  0  9G30G 8G28G 5G 9G27G 7G13G14
  20630822.563   108415812.599    20630830.109    84479850.977  
  21396965.266   112441822.494    21396973.289    87617092.377  
  22257311.242   116962998.593                                  
  24000348.250   126122541.392    24000354.582    98277445.236  
  23415654.625   123050004.521    23415662.355    95883255.248  
  23107499.664   121430711.913    23107506.500    94621422.069  
  20513112.148   107797203.351    20513116.961    83997849.901  
  23326374.258   122580989.475                                  
  21844565.352   114794238.314    21844571.445    89449909.572  
 21  1  7 23  6 55.0000000  0  9G30G 8G28G 5G 9G27G 7G13G14
  20630586.953   108414575.954    20630595.031    84478887.362  
  21397001.563   112442015.220    21397009.660    87617242.548  
  22256814.109   116960381.581                                  
  24000694.063   126124359.469    24000700.059    98278861.913  
  23416357.484   123053697.831    23416365.098    95886133.147  
  23107988.281   121433283.209    23107996.082    94623425.676  
  20513237.461   107797862.247    20513242.277    83998363.326  
  23325770.031   122577810.033                                  
  21844052.063   114791541.712    21844058.148    89447808.326  
 21  1  7 23  6 56.0000000  0  9G30G 8G28G 5G 9G27G 7G13G14
  20630351.930   108413339.789    20630359.484    84477924.113  
  21397038.625   112442208.751    21397046.293    87617393.352  
  22256316.203   116957764.957                                  
  24001041.070   126126178.145    24001046.520    98280279.063  
  23417059.625   123057391.365    23417068.125    95889011.223  
  23108477.883   121435855.076    23108485.219    94625429.723  
  20513362.758   107798521.635    20513367.598    83998877.132  
  23325164.508   122574630.973                                  
  21843539.367   114788845.492    21843544.930    89445707.373  
 21  1  7 23  6 57.0000000  0  9G30G 8G28G 5G 9G27G 7G13G14
  20630116.852   108412104.017    20630124.180    84476961.173  
  21397075.453   112442402.959    21397083.656    87617544.690  
  22255818.320   116955148.649                                  
  24001387.328   126127997.273    24001392.961    98281696.572  
  23417762.352   123061085.123    23417771.340    95891889.474  
  23108967.727   121438427.444    23108975.188    94627434.166  
  20513487.875   107799181.432    20513493.527    83999391.262  
  23324560.016   122571452.259                                  
  21843026.125   114786149.634    21843031.625    89443606.705  
 21  1  7 23  6 58.0000000  0  9G30G 8G28G 5G 9G27G 7G13G14
  20629881.805   108410868.644    20629889.422    84475998.545  
  21397113.039   112442597.865    21397121.168    87617696.563  
  22255320.641   116952532.676                                  
  24001732.984   126129816.909    24001738.832    98283114.471  
  23418465.055   123064779.087    23418474.352    95894767.893  
  23109456.086   121441000.340    23109464.227    94629439.017  
  20513614.188   107799841.673    20513619.191    83999905.735  
  23323954.547   122568273.847                                  
  21842512.883   114783454.097    21842518.988    89441506.291  
 21  1  7 23  6 59.0000000  0  9G30G 8G28G 5G 9G27G 7G13G14
  20629646.781   108409633.677    20629654.051    84475036.237  
  21397150.031   112442793.467    21397158.285    87617848.981  
  22254822.930   116949916.997                                  
  24002078.555   126131637.047    24002085.121    98284532.760  
  23419168.797   123068473.240    23419176.715    95897646.452  
  23109945.813   121443573.743    23109953.746    94631444.267  
  20513739.430   107800502.319    20513744.770    84000420.526  
  23323349.742   122565095.736                                  
  21842000.586   114780758.941    21842006.164    89439406.167  
 21  1  7 23  7  0.0000000  0  9G30G 8G28G 5G 9G27G 7G13G14
  20629411.930   108408399.097    20629419.523    84474074.225  
  21397187.523   112442989.769    21397195.633    87618001.946  
  22254324.227   116947301.664                                  
  24002424.727   126133457.699    24002431.707    98285951.446  
  23419871.820   123072167.638    23419879.996    95900525.208  
  23110436.617   121446147.694    23110443.805    94633449.946  
  20513865.227   107801163.390    20513870.699    84000935.643  
  23322745.664   122561917.983                                  
  21841487.500   114778064.115    21841493.367    89437306.303  
 21  1  7 23  7  1.0000000  0  9G30G 8G28G 5G 9G27G 7G13G14
  20629176.820   108407164.934    20629184.480    84473112.540  
  21397224.742   112443186.779    21397232.813    87618155.462  
  22253826.695   116944686.636                                  
  24002771.891   126135278.832    24002778.289    98287370.507  
  23420574.055   123075862.205    23420583.156    95903404.088  
  23110926.023   121448722.151    23110933.695    94635456.015  
  20513991.195   107801824.894    20513996.184    84001451.103  
  23322140.555   122558740.528                                  
  21840975.023   114775369.644    21840981.035    89435206.718  
 21  1  7 23  7  2.0000000  0  9G30G 8G28G 5G 9G27G 7G13G14
  20628941.992   108405931.186    20628949.664    84472151.176  
  21397262.508   112443384.553    21397270.414    87618309.568  
  22253329.656   116942071.933                                  
  24003118.906   126137100.495    24003124.445    98288789.980  
  23421278.203   123079557.016    23421286.051    95906283.159  
  23111415.531   121451297.145    23111423.906    94637462.499  
  20514117.195   107802486.833    20514122.484    84001966.899  
  23321535.641   122555563.417                                  
  21840462.000   114772675.573    21840467.813    89433107.442  
 21  1  7 23  7  3.0000000  0  9G30G 8G28G 5G 9G27G 7G13G14
  20628707.109   108404697.846    20628714.883    84471190.134  
  21397300.039   112443582.997    21397308.000    87618464.204  
  22252832.266   116939457.553                                  
  24003466.031   126138922.607    24003471.352    98290209.810  
  23421980.875   123083251.984    23421989.031    95909162.351  
  23111905.844   121453872.672    23111914.262    94639469.402  
  20514243.398   107803149.174    20514248.547    84002483.009  
  23320931.641   122552386.622                                  
  21839949.609   114769981.807    21839955.230    89431008.404  
 21  1  7 23  7  4.0000000  0  9G30G 8G28G 5G 9G27G 7G13G14
  20628472.727   108403464.936    20628480.320    84470229.421  
  21397338.234   112443782.198    21397346.254    87618619.422  
  22252334.883   116936843.564                                  
  24003813.594   126140745.303    24003818.215    98291630.096  
  23422683.383   123086947.253    23422692.227    95912041.782  
  23112396.617   121456448.755    23112404.457    94641476.742  
  20514369.828   107803812.005    20514374.395    84002999.500  
  23320326.508   122549210.207                                  
  21839436.781   114767288.447    21839443.020    89428909.680  
 21  1  7 23  7  5.0000000  0  9G30G 8G28G 5G 9G27G 7G13G14
  20628238.094   108402232.384    20628246.082    84469268.994  
  21397376.055   112443982.063    21397384.367    87618775.164  
  22251837.164   116934229.807                                  
  24004159.086   126142568.430    24004165.438    98293050.718  
  23423387.117   123090642.678    23423395.098    95914921.327  
  23112886.344   121459025.333    23112894.238    94643484.462  
  20514495.703   107804475.209    20514500.656    84003516.283  
  23319722.445   122546034.082                                  
  21838924.539   114764595.402    21838930.621    89426811.213  
 21  1  7 23  7  6.0000000  0  9G30G 8G28G 5G 9G27G 7G13G14
  20628003.906   108401000.250    20628011.715    84468308.889  
  21397414.563   112444182.681    21397422.590    87618931.491  
  22251339.438   116931616.430                                  
  24004505.445   126144392.098    24004512.496    98294471.758  
  23424090.625   123094338.279    23424098.414    95917801.013  
  23113376.586   121461602.476    23113384.641    94645492.622  
  20514621.484   107805138.837    20514626.730    84004033.399  
  23319118.195   122542858.259                                  
  21838412.250   114761902.713    21838417.930    89424713.016  
 21  1  7 23  7  7.0000000  0  9G30G 8G28G 5G 9G27G 7G13G14
  20627769.211   108399768.522    20627777.164    84467349.100  
  21397452.750   112444383.974    21397460.570    87619088.340  
  22250842.609   116929003.303                                  
  24004852.633   126146216.251    24004859.477    98295893.179  
  23424794.047   123098034.076    23424802.055    95920680.856  
  23113867.414   121464180.071    23113875.168    94647501.135  
  20514748.117   107805802.858    20514753.289    84004550.812  
  23318513.836   122539682.737                                  
  21837899.664   114759210.367    21837905.984    89422615.077  
 21  1  7 23  7  8.0000000  0  9G30G 8G28G 5G 9G27G 7G13G14
  20627535.117   108398537.169    20627542.637    84466389.606  
  21397490.602   112444586.004    21397499.289    87619245.762  
  22250345.227   116926390.556                                  
  24005200.742   126148040.847    24005207.043    98297314.933  
  23425496.641   123101730.141    23425504.797    95923560.912  
  23114357.586   121466758.191    23114365.793    94649510.057  
  20514874.953   107806467.333    20514879.980    84005068.590  
  23317909.016   122536507.601                                  
  21837387.211   114756518.376    21837393.332    89420517.423  
 21  1  7 23  7  9.0000000  0  9G30G 8G28G 5G 9G27G 7G13G14
  20627300.828   108397306.250    20627308.676    84465430.448  
  21397529.813   112444788.717    21397537.641    87619403.720  
  22249848.227   116923778.114                                  
  24005548.555   126149865.985    24005553.746    98298737.113  
  23426200.281   123105426.342    23426208.383    95926441.069  
  23114848.984   121469336.854    23114856.656    94651519.406  
  20515001.445   107807132.229    20515006.246    84005586.689  
  23317305.703   122533332.723                                  
  21836875.102   114753826.732    21836881.000    89418420.039  
 21  1  7 23  7 10.0000000  0  9G30G 8G28G 5G 9G27G 7G13G14
  20627066.539   108396075.720    20627074.285    84464471.594  
  21397568.305   112444992.170    21397576.324    87619562.256  
  22249350.641   116921165.994                                  
  24005895.852   126151691.615    24005901.188    98300159.682  
  23426903.813   123109122.785    23426912.086    95929321.412  
  23115339.602   121471916.037    23115347.102    94653529.160  
  20515127.797   107807797.545    20515133.141    84006105.119  
  23316701.719   122530158.204                                  
  21836363.023   114751135.458    21836368.898    89416322.944  
 21  1  7 23  7 11.0000000  0  9G30G 8G28G 5G 9G27G 7G13G14
  20626832.508   108394845.625    20626840.152    84463513.077  
  21397607.508   112445196.309    21397614.891    87619721.326  
  22248853.914   116918554.229                                  
  24006243.359   126153517.791    24006249.168    98301582.680  
  23427607.609   123112819.456    23427616.156    95932201.938  
  23115830.719   121474495.815    23115837.945    94655539.376  
  20515254.703   107808463.302    20515259.426    84006623.890  
  23316097.297   122526984.028                                  
  21835851.023   114748444.541    21835856.785    89414226.127  
 21  1  7 23  7 12.0000000  0  9G30G 8G28G 5G 9G27G 7G13G14
  20626598.266   108393615.931    20626606.676    84462554.872  
  21397646.391   112445401.162    21397654.227    87619880.952  
  22248357.008   116915942.780                                  
  24006590.109   126155344.469    24006596.469    98303006.070  
  23428311.164   123116516.315    23428319.570    95935082.607  
  23116321.742   121477076.038    23116329.246    94657549.941  
  20515381.570   107809129.496    20515386.328    84007143.000  
  23315493.570   122523810.203                                  
  21835339.586   114745753.995    21835344.762    89412129.599  
 21  1  7 23  7 13.0000000  0  9G30G 8G28G 5G 9G27G 7G13G14
  20626365.094   108392386.624    20626372.910    84461596.971  
  21397685.047   112445606.745    21397693.320    87620041.150  
  22247860.750   116913331.648                                  
  24006937.328   126157171.609    24006944.219    98304429.817  
  23429014.016   123120213.395    23429023.215    95937963.449  
  23116812.813   121479656.791    23116819.828    94659560.921  
  20515507.891   107809796.124    20515513.477    84007662.452  
  23314889.188   122520636.639                                  
  21834826.930   114743063.775    21834833.023    89410033.322  
 21  1  7 23  7 14.0000000  0  9G30G 8G28G 5G 9G27G 7G13G14
  20626130.742   108391157.692    20626138.672    84460639.365  
  21397724.383   112445812.973    21397732.168    87620201.845  
  22247363.773   116910720.805                                  
  24007284.969   126158999.239    24007292.016    98305853.941  
  23429717.570   123123910.648    23429726.777    95940844.430  
  23117304.055   121482238.060    23117311.105    94661572.297  
  20515634.867   107810463.096    20515640.410    84008182.169  
  23314285.188   122517463.393                                  
  21834315.039   114740373.883    21834321.273    89407937.305  
 21  1  7 23  7 15.0000000  0  9G30G 8G28G 5G 9G27G 7G13G14
  20625897.023   108389929.216    20625904.680    84459682.107  
  21397764.070   112446019.983    21397771.691    87620363.149  
  22246866.789   116908110.334                                  
  24007634.344   126160827.418    24007640.172    98307278.491  
  23430421.758   123127608.141    23430429.773    95943725.591  
  23117795.758   121484819.920    23117803.000    94663584.135  
  20515761.914   107811130.591    20515767.410    84008702.294  
  23313682.023   122514290.524                                  
  21833803.625   114737684.406    21833809.473    89405841.612  
 21  1  7 23  7 16.0000000  0  9G30G 8G28G 5G 9G27G 7G13G14
  20625663.602   108388701.106    20625670.871    84458725.140  
  21397803.469   112446227.657    21397811.379    87620524.982  
  22246370.109   116905500.168                                  
  24007982.875   126162656.071    24007988.020    98308703.414  
  23431124.820   123131305.807    23431133.289    95946606.883  
  23118286.391   121487402.234    23118293.801    94665596.332  
  20515889.250   107811798.468    20515894.523    84009222.717  
  23313078.391   122511117.940                                  
  21833291.875   114734995.249    21833297.766    89403746.164  
 21  1  7 23  7 17.0000000  0  9G30G 8G28G 5G 9G27G 7G13G14
  20625429.922   108387473.450    20625437.344    84457768.524  
  21397843.180   112446436.083    21397851.457    87620687.389  
  22245872.828   116902890.332                                  
  24008330.938   126164485.212    24008335.773    98310128.718  
  23431828.883   123135003.742    23431837.113    95949488.391  
  23118778.711   121489985.102    23118785.582    94667608.960  
  20516016.023   107812466.791    20516021.652    84009743.484  
  23312474.242   122507945.730                                  
  21832780.219   114732306.461    21832786.121    89401651.004  
 21  1  7 23  7 18.0000000  0  9G30G 8G28G 5G 9G27G 7G13G14
  20625196.359   108386246.196    20625204.211    84456812.226  
  21397882.977   112446645.210    21397891.430    87620850.345  
  22245377.016   116900280.858                                  
  24008678.250   126166314.870    24008683.875    98311554.429  
  23432532.406   123138701.837    23432541.086    95952370.017  
  23119269.922   121492568.534    23119277.434    94669622.025  
  20516143.258   107813135.553    20516148.883    84010264.599  
  23311870.938   122504773.848                                  
  21832268.523   114729618.041    21832274.172    89399556.128  
 21  1  7 23  7 19.0000000  0  9G30G 8G28G 5G 9G27G 7G13G14
  20624962.977   108385019.325    20624970.547    84455856.220  
  21397922.867   112446855.033    21397930.770    87621013.841  
  22244880.750   116897671.659                                  
  24009025.906   126168145.035    24009032.691    98312980.530  
  23433236.313   123142400.170    23433244.465    95955251.834  
  23119761.125   121495152.423    23119768.738    94671635.444  
  20516270.664   107813804.713    20516276.508    84010786.021  
  23311266.672   122501602.252                                  
  21831757.008   114726929.939    21831762.379    89397461.509  
 21  1  7 23  7 20.0000000  0  9G30G 8G28G 5G 9G27G 7G13G14
  20624729.422   108383792.897    20624737.344    84454900.561  
  21397962.977   112447065.602    21397970.656    87621177.926  
  22244384.539   116895062.825                                  
  24009374.031   126169975.709    24009380.793    98314407.024  
  23433940.453   123146098.706    23433948.367    95958133.812  
  23120252.688   121497736.900    23120260.875    94673649.325  
  20516398.211   107814474.330    20516403.445    84011307.804  
  23310663.648   122498431.048                                  
  21831245.563   114724242.234    21831250.992    89395367.189  
 21  1  7 23  7 21.0000000  0  9G30G 8G28G 5G 9G27G 7G13G14
  20624496.070   108382566.831    20624503.793    84453945.184  
  21398002.789   112447276.834    21398011.156    87621342.520  
  22243888.008   116892454.280                                  
  24009724.047   126171806.827    24009728.789    98315833.866  
  23434644.156   123149797.371    23434652.508    95961015.885  
  23120744.266   121500321.827    23120752.508    94675663.557  
  20516526.016   107815144.333    20516530.957    84011829.885  
  23310060.188   122495260.099                                  
  21830734.141   114721554.855    21830739.914    89393273.126  
 21  1  7 23  7 22.0000000  0  9G30G 8G28G 5G 9G27G 7G13G14
  20624262.625   108381341.199    20624270.703    84452990.152  
  21398043.141   112447488.832    21398051.551    87621507.715  
  22243391.461   116889846.101                                  
  24010073.258   126173638.499    24010077.563    98317261.139  
  23435348.031   123153496.346    23435356.523    95963898.203  
  23121237.078   121502907.363    23121244.563    94677678.256  
  20516653.352   107815814.821    20516658.410    84012352.339  
  23309456.852   122492089.534                                  
  21830222.898   114718867.879    21830228.512    89391179.382  
 21  1  7 23  7 23.0000000  0  9G30G 8G28G 5G 9G27G 7G13G14
  20624029.781   108380115.992    20624037.414    84452035.446  
  21398083.844   112447701.534    21398092.117    87621673.456  
  22242894.961   116887238.246                                  
  24010421.156   126175470.673    24010426.316    98318688.812  
  23436050.922   123157195.518    23436059.891    95966780.677  
  23121729.313   121505493.427    23121736.832    94679693.367  
  20516781.273   107816485.720    20516786.449    84012875.120  
  23308854.047   122488919.273                                  
  21829711.664   114716181.226    21829717.148    89389085.885  
 21  1  7 23  7 24.0000000  0  9G30G 8G28G 5G 9G27G 7G13G14
  20623796.445   108378891.114    20623804.273    84451080.992  
  21398124.273   112447914.869    21398132.801    87621839.688  
  22242398.352   116884630.665                                  
  24010768.930   126177303.288    24010775.367    98320116.818  
  23436755.648   123160894.805    23436763.762    95969663.237  
  23122221.195   121508079.902    23122229.387    94681708.807  
  20516909.203   107817156.984    20516913.953    84013398.184  
  23308250.188   122485749.281                                  
  21829199.734   114713494.891    21829206.512    89386992.639  
 21  1  7 23  7 25.0000000  0  9G30G 8G28G 5G 9G27G 7G13G14
  20623563.602   108377666.694    20623571.457    84450126.902  
  21398165.188   112448128.968    21398173.188    87622006.522  
  22241902.250   116882023.443                                  
  24011117.633   126179136.433    24011124.051    98321545.241  
  23437459.797   123164594.346    23437467.707    95972545.994  
  23122713.648   121510666.974    23122721.492    94683724.705  
  20517036.875   107817828.722    20517041.766    84013921.611  
  23307647.984   122482579.673                                  
  21828688.969   114710808.929    21828695.016    89384899.682  
 21  1  7 23  7 26.0000000  0  9G30G 8G28G 5G 9G27G 7G13G14
  20623330.594   108376442.711    20623338.211    84449173.149  
  21398205.898   112448343.757    21398214.465    87622173.888  
  22241406.648   116879416.551                                  
  24011467.180   126180970.099    24011472.773    98322974.064  
  23438163.141   123168294.140    23438172.496    95975428.951  
  23123206.367   121513254.580    23123213.824    94685741.014  
  20517164.859   107818500.889    20517169.871    84014445.383  
  23307043.977   122479410.408                                  
  21828178.141   114708123.364    21828184.074    89382807.040  
 21  1  7 23  7 27.0000000  0  9G30G 8G28G 5G 9G27G 7G13G14
  20623097.906   108375219.061    20623105.648    84448219.652  
  21398247.172   112448559.237    21398255.605    87622341.796  
  22240910.641   116876809.959                                  
  24011816.852   126182804.205    24011821.738    98324403.231  
  23438867.805   123171994.053    23438876.676    95978311.999  
  23123698.313   121515842.662    23123706.348    94687757.701  
  20517292.523   107819173.434    20517297.520    84014969.440  
  23306440.977   122476241.405                                  
  21827667.117   114705438.096    21827673.047    89380714.624  
 21  1  7 23  7 28.0000000  0  9G30G 8G28G 5G 9G27G 7G13G14
  20622865.156   108373995.856    20622872.895    84447266.508  
  21398288.195   112448775.474    21398296.254    87622510.291  
  22240414.820   116874203.718                                  
  24012167.266   126184638.843    24012170.484    98325832.823  
  23439571.898   123175694.231    23439580.480    95981195.251  
  23124191.125   121518431.304    23124199.129    94689774.822  
  20517420.914   107819846.446    20517425.836    84015493.865  
  23305838.188   122473072.772                                  
  21827156.367   114702753.227    21827162.797    89378622.518  
 21  1  7 23  7 29.0000000  0  9G30G 8G28G 5G 9G27G 7G13G14
  20622631.977   108372773.062    20622640.145    84446313.683  
  21398329.695   112448992.406    21398337.984    87622679.328  
  22239918.609   116871597.790                                  
  24012515.469   126186473.967    24012520.066    98327262.797  
  23440276.141   123179394.628    23440284.313    95984078.674  
  23124683.594   121521020.493    23124691.840    94691792.368  
  20517548.727   107820519.899    20517553.793    84016018.638  
  23305235.172   122469904.480                                  
  21826645.648   114700068.695    21826651.375    89376530.675  
 21  1  7 23  7 30.0000000  0  9G30G 8G28G 5G 9G27G 7G13G14
  20622399.969   108371550.671    20622407.480    84445361.167  
  21398370.883   112449210.040    21398379.164    87622848.913  
  22239423.008   116868992.194                                  
  24012863.664   126188309.587    24012869.301    98328693.157  
  23440980.547   123183095.196    23440988.547    95986962.229  
  23125176.039   121523610.163    23125184.762    94693810.292  
  20517677.141   107821193.755    20517682.082    84016543.721  
  23304631.555   122466736.459                                  
  21826134.602   114697384.513    21826140.570    89374439.105  
 21  1  7 23  7 31.0000000  0  9G30G 8G28G 5G 9G27G 7G13G14
  20622167.563   108370328.698    20622175.070    84444408.978  
  21398412.688   112449428.418    21398420.453    87623019.079  
  22238926.633   116866386.930                                  
  24013212.508   126190145.752    24013219.004    98330123.939  
  23441684.680   123186796.006    23441693.137    95989845.979  
  23125669.563   121526200.375    23125677.332    94695828.637  
  20517805.313   107821868.052    20517810.656    84017069.147  
  23304029.180   122463568.824                                  
  21825623.961   114694700.726    21825629.906    89372347.841  
 21  1  7 23  7 32.0000000  0  9G30G 8G28G 5G 9G27G 7G13G14
  20621934.289   108369107.085    20621942.156    84443457.077  
  21398454.609   112449647.491    21398462.203    87623189.784  
  22238431.430   116863781.952                                  
  24013561.289   126191982.356    24013568.184    98331555.061  
  23442388.734   123190496.940    23442397.105    95992729.823  
  23126162.531   121528791.082    23126170.035    94697847.368  
  20517933.688   107822542.731    20517938.961    84017594.867  
  23303426.531   122460401.486                                  
  21825113.242   114692017.235    21825119.051    89370256.812  
 21  1  7 23  7 33.0000000  0  9G30G 8G28G 5G 9G27G 7G13G14
  20621702.320   108367885.921    20621710.070    84442505.518  
  21398496.445   112449867.290    21398504.332    87623361.055  
  22237936.008   116861177.321                                  
  24013911.578   126193819.479    24013917.582    98332986.576  
  23443093.180   123194198.131    23443101.242    95995613.874  
  23126655.625   121531382.343    23126663.441    94699866.538  
  20518062.250   107823217.880    20518067.430    84018120.959  
  23302824.039   122457234.483                                  
  21824602.852   114689334.125    21824608.551    89368166.082  
 21  1  7 23  7 34.0000000  0  9G30G 8G28G 5G 9G27G 7G13G14
  20621469.969   108366665.154    20621477.871    84441554.274  
  21398538.234   112450087.828    21398545.766    87623532.910  
  22237440.070   116858573.029                                  
  24014262.523   126195657.106    24014267.730    98334418.489  
  23443797.219   123197899.521    23443806.117    95998498.079  
  23127148.703   121533974.116    23127156.633    94701886.098  
  20518190.695   107823893.456    20518196.023    84018647.381  
  23302221.141   122454067.805                                  
  21824092.117   114686651.389    21824098.219    89366075.636  
 21  1  7 23  7 35.0000000  0  9G30G 8G28G 5G 9G27G 7G13G14
  20621237.859   108365444.792    20621245.652    84440603.337  
  21398580.133   112450309.047    21398588.426    87623705.288  
  22236944.516   116855969.062                                  
  24014612.164   126197495.214    24014617.391    98335850.782  
  23444502.227   123201601.139    23444510.121    96001382.462  
  23127642.742   121536566.405    23127649.789    94703906.068  
  20518319.852   107824569.446    20518324.203    84019174.125  
  23301618.641   122450901.459                                  
  21823581.727   114683968.969    21823587.715    89363985.438  
 21  1  7 23  7 36.0000000  0  9G30G 8G28G 5G 9G27G 7G13G14
  20621005.852   108364224.816    20621013.430    84439652.706  
  21398622.336   112450530.966    21398630.641    87623878.211  
  22236448.117   116853365.388                                  
  24014961.359   126199333.816    24014967.273    98337283.470  
  23445206.891   123205302.915    23445214.402    96004266.961  
  23128134.867   121539159.220    23128143.320    94705926.446  
  20518447.930   107825245.837    20518452.969    84019701.182  
  23301016.578   122447735.465                                  
  21823071.305   114681286.934    21823077.215    89361895.544  
 21  1  7 23  7 37.0000000  0  9G30G 8G28G 5G 9G27G 7G13G14
  20620773.539   108363005.276    20620781.293    84438702.417  
  21398664.547   112450753.609    21398672.617    87624051.698  
  22235953.688   116850762.085                                  
  24015311.109   126201172.965    24015317.477    98338716.575  
  23445910.930   123209004.983    23445918.859    96007151.690  
  23128628.844   121541752.555    23128637.016    94707947.231  
  20518577.094   107825922.693    20518582.129    84020228.603  
  23300414.734   122444569.795                                  
  21822560.672   114678605.245    21822567.008    89359805.910  
 21  1  7 23  7 38.0000000  0  9G30G 8G28G 5G 9G27G 7G13G14
  20620541.539   108361786.084    20620549.363    84437752.398  
  21398707.125   112450976.885    21398715.375    87624225.681  
  22235458.375   116848159.015                                  
  24015660.563   126203012.518    24015667.203    98340149.993  
  23446615.414   123212707.135    23446623.773    96010036.481  
  23129122.094   121544346.358    23129130.520    94709968.370  
  20518705.805   107826599.896    20518710.910    84020756.296  
  23299812.094   122441404.354                                  
  21822050.547   114675923.856    21822056.832    89357716.514  
 21  1  7 23  7 39.0000000  0  9G30G 8G28G 5G 9G27G 7G13G14
  20620309.813   108360567.339    20620317.602    84436802.724  
  21398750.109   112451200.922    21398758.172    87624400.253  
  22234963.242   116845556.337                                  
  24016011.680   126204852.609    24016017.156    98341583.821  
  23447320.195   123216409.525    23447328.184    96012921.459  
  23129616.461   121546940.743    23129624.316    94711989.968  
  20518834.805   107827277.593    20518840.176    84021284.370  
  23299210.422   122438239.311                                  
  21821540.055   114673242.887    21821546.156    89355627.449  
 21  1  7 23  7 40.0000000  0  9G30G 8G28G 5G 9G27G 7G13G14
  20620077.586   108359349.032    20620085.141    84435853.400  
  21398793.180   112451425.679    21398800.910    87624575.391  
  22234467.578   116842954.022                                  
  24016363.031   126206693.218    24016368.281    98343018.048  
  23448024.375   123220112.169    23448032.602    96015806.632  
  23130109.852   121549535.650    23130117.586    94714011.974  
  20518963.844   107827955.741    20518969.195    84021812.794  
  23298607.438   122435074.642                                  
  21821030.195   114670562.285    21821036.363    89353538.670  
 21  1  7 23  7 41.0000000  0  9G30G 8G28G 5G 9G27G 7G13G14
  20619846.008   108358131.124    20619853.672    84434904.378  
  21398835.492   112451651.161    21398843.742    87624751.092  
  22233972.805   116840351.999                                  
  24016713.172   126208534.335    24016717.824    98344452.685  
  23448729.109   123223815.002    23448737.469    96018691.963  
  23130604.477   121552131.116    23130611.445    94716034.417  
  20519092.656   107828634.296    20519097.992    84022341.542  
  23298005.125   122431910.256                                  
  21820520.859   114667882.027    21820526.762    89351450.163  
 21  1  7 23  7 42.0000000  0  9G30G 8G28G 5G 9G27G 7G13G14
  20619614.391   108356913.624    20619622.266    84433955.680  
  21398878.563   112451877.350    21398886.766    87624927.341  
  22233477.492   116837750.327                                  
  24017063.406   126210375.947    24017068.676    98345887.711  
  23449433.719   123227518.059    23449442.137    96021577.457  
  23131098.031   121554727.063    23131105.891    94718057.237  
  20519221.945   107829313.274    20519227.223    84022870.615  
  23297402.906   122428746.247                                  
  21820010.695   114665202.147    21820016.656    89349361.943  
