     2.10           OBSERVATION DATA    G (GPS)             RINEX VERSION / TYPE
RTKCONV 2.4.2                           20180116 022310 UTC PGM / RUN BY / DATE 
log: C:\Users\peiyuan\Desktop\Group_2 at S5\57960150No.6S5  COMMENT             
format: RINEX                                               COMMENT             
A                                                           MARKER NAME         
                                                            MARKER NUMBER       
                                                            OBSERVER / AGENCY   
5448485796          Trimble R10         4.90                REC # / TYPE / VERS 
                    TRMR10          NONE                    ANT # / TYPE        
        0.0000        0.0000        0.0000                  APPROX POSITION XYZ 
        1.9430        0.0000        0.0000                  ANTENNA: DELTA H/E/N
     1     1                                                WAVELENGTH FACT L1/2
     4    C1    L1    C2    L2                              # / TYPES OF OBSERV 
  2018     1    15    22     8   16.0000000     GPS         TIME OF FIRST OBS   
  2018     1    15    22    42   22.0000000     GPS         TIME OF LAST OBS    
                                                            END OF HEADER       
 18  1 15 22  8 16.0000000  0  9G 7G22G31G23G 6G 3G26G16G 9
  24011343.320   126180458.7131   24011347.348    98322454.5631 
  23910765.141   125651912.7661                                 
  24743675.875   130028896.2471   24743679.789   101321236.7181 
  20359611.906   106990481.4981                                 
  24259590.719   127485006.9881   24259597.551    99338997.0611 
  22408204.523   117755906.1071   22408211.234    91757876.1641 
  21658143.516   113814312.6581   21658150.359    88686506.1521 
  20804760.664   109329758.1411                                 
  21277634.539   111814723.1781   21277639.559    87128378.2931 
 18  1 15 22  8 17.0000000  0  9G 7G22G31G23G 6G 3G26G16G 9
  24010723.492   126177202.725    24010728.191    98319917.434  
  23911421.164   125655359.548                                  
  24744306.813   130032212.389    24744310.891   101323820.712  
  20359493.914   106989861.117                                  
  24259885.008   127486555.406    24259892.211    99340203.631  
  22408797.820   117759024.750    22408805.105    91760306.284  
  21658371.484   113815509.342    21658377.977    88687438.641  
  20804526.906   109328530.201                                  
  21277159.563   111812229.725    21277164.457    87126435.351  
 18  1 15 22  8 18.0000000  0  9G 7G22G31G23G 6G 3G26G16G 9
  24010103.938   126173947.526    24010108.523    98317380.918  
  23912077.031   125658807.133                                  
  24744938.219   130035529.215    24744942.547   101326405.259  
  20359376.375   106989241.854                                  
  24260178.828   127488104.939    24260186.711    99341411.080  
  22409391.609   117762144.378    22409398.906    91762737.168  
  21658599.391   113816707.314    21658605.957    88688372.120  
  20804293.547   109327303.640                                  
  21276685.203   111809737.263    21276690.203    87124493.174  
 18  1 15 22  8 19.0000000  0  9G 7G22G31G23G 6G 3G26G16G 9
  24009484.844   126170693.154    24009489.125    98314845.059  
  23912733.586   125662255.532                                  
  24745569.219   130038846.760    24745573.973   101328990.381  
  20359258.148   106988623.769                                  
  24260474.766   127489655.700    24260482.473    99342619.479  
  22409985.297   117765265.071    22409992.086    91765168.862  
  21658827.422   113817906.614    21658834.105    88689306.642  
  20804060.594   109326078.516                                  
  21276211.273   111807245.822    21276215.789    87122551.788  
 18  1 15 22  8 20.0000000  0  9G 7G22G31G23G 6G 3G26G16G 9
  24008865.242   126167439.758    24008870.105    98312309.954  
  23913389.805   125665704.839                                  
  24746201.023   130042165.053    24746205.355   101331576.073  
  20359141.109   106988006.904                                  
  24260769.375   127491207.722    24260777.695    99343828.846  
  22410579.539   117768386.850    22410586.082    91767601.406  
  21659056.023   113819107.300    21659062.508    88690242.236  
  20803827.828   109324854.912                                  
  21275737.250   111804755.484    21275742.363    87120611.267  
 18  1 15 22  8 21.0000000  0  9G 7G22G31G23G 6G 3G26G16G 9
  24008246.195   126164187.178    24008251.430    98309775.460  
  23914046.109   125669154.996                                  
  24746832.586   130045484.086    24746837.137   101334162.324  
  20359024.055   106987391.218                                  
  24261065.609   127492760.926    24261073.125    99345039.119  
  22411174.117   117771509.692    22411180.488    91770034.788  
  21659284.602   113820309.318    21659291.277    88691178.875  
  20803595.297   109323632.709                                  
  21275263.750   111802266.174    21275268.453    87118671.542  
 18  1 15 22  8 22.0000000  0  9G 7G22G31G23G 6G 3G26G16G 9
  24007628.344   126160935.277    24007632.637    98307241.503  
  23914702.797   125672605.931                                  
  24747464.773   130048803.784    24747468.797   101336749.103  
  20358907.023   106986776.626                                  
  24261361.180   127494315.336    24261369.355    99346250.323  
  22411767.961   117774633.526    22411775.059    91772468.946  
  21659514.031   113821512.633    21659520.449    88692116.524  
  20803363.102   109322411.937                                  
  21274789.898   111799777.849    21274794.934    87116732.592  
 18  1 15 22  8 23.0000000  0  9G 7G22G31G23G 6G 3G26G16G 9
  24007009.180   126157684.311    24007013.871    98304708.281  
  23915359.930   125676057.704                                  
  24748095.984   130052124.238    24748100.855   101339336.477  
  20358790.367   106986163.213                                  
  24261657.625   127495870.950    24261664.602    99347462.478  
  22412362.609   117777758.393    22412369.520    91774903.911  
  21659743.148   113822717.303    21659749.750    88693055.232  
  20803130.703   109321192.587                                  
  21274316.898   111797290.558    21274321.883    87114794.439  
 18  1 15 22  8 24.0000000  0  9G 7G22G31G23G 6G 3G26G16G 9
  24006390.992   126154434.246    24006394.645    98302175.756  
  23916016.648   125679510.334                                  
  24748728.055   130055445.178    24748732.543   101341924.262  
  20358673.500   106985551.026                                  
  24261954.344   127497427.720    24261961.246    99348675.541  
  22412958.016   117780884.423    22412964.145    91777339.779  
  21659972.406   113823923.309    21659978.930    88693994.963  
  20802899.273   109319974.690                                  
  21273843.938   111794804.323    21273848.648    87112857.099  
 18  1 15 22  8 25.0000000  0  9G 7G22G31G23G 6G 3G26G16G 9
  24005772.586   126151184.973    24005776.645    98299643.814  
  23916674.219   125682963.776                                  
  24749360.609   130058767.040    24749364.199   101344512.697  
  20358557.430   106984939.982                                  
  24262249.961   127498985.821    24262257.328    99349889.650  
  22413552.859   117784011.400    22413559.020    91779776.382  
  21660202.453   113825130.698    21660209.090    88694935.795  
  20802667.773   109318758.231                                  
  21273370.586   111792319.105    21273375.512    87110920.579  
 18  1 15 22  8 26.0000000  0  9G 7G22G31G23G 6G 3G26G16G 9
  24005154.695   126147936.570    24005158.371    98297112.575  
  23917331.391   125686418.095                                  
  24749991.297   130062089.696    24749996.344   101347101.789  
  20358441.594   106984330.063                                  
  24262547.117   127500545.013    24262554.000    99351104.630  
  22414147.813   117787139.403    22414154.172    91782213.783  
  21660431.820   113826339.362    21660438.734    88695877.603  
  20802436.453   109317543.158                                  
  21272897.969   111789834.891    21272902.855    87108984.811  
 18  1 15 22  8 27.0000000  0  9G 7G22G31G23G 6G 3G26G16G 9
  24004537.961   126144688.894    24004541.000    98294581.950  
  23917988.539   125689873.143                                  
  24750624.805   130065412.972    24750628.188   101349691.334  
  20358325.555   106983721.290                                  
  24262843.977   127502105.334    24262850.930    99352320.469  
  22414743.258   117790268.458    22414749.543    91784652.002  
  21660662.164   113827549.300    21660669.480    88696820.423  
  20802205.516   109316329.517                                  
  21272425.461   111787351.698    21272430.563    87107049.861  
 18  1 15 22  8 28.0000000  0  9G 7G22G31G23G 6G 3G26G16G 9
  24003919.484   126141442.084    24003922.699    98292051.996  
  23918646.922   125693329.069                                  
  24751257.508   130068736.904    24751260.684   101352281.397  
  20358209.820   106983113.680                                  
  24263140.484   127503666.901    24263147.996    99353537.284  
  22415339.195   117793398.530    22415345.641    91787091.019  
  21660892.484   113828760.603    21660899.793    88697764.303  
  20801974.539   109315117.334                                  
  21271952.906   111784869.504    21271958.363    87105115.688  
 18  1 15 22  8 29.0000000  0  9G 7G22G31G23G 6G 3G26G16G 9
  24003301.164   126138196.176    24003305.801    98289522.703  
  23919304.266   125696785.797                                  
  24751890.148   130072061.503    24751893.082   101354871.971  
  20358094.563   106982507.254                                  
  24263437.438   127505229.652    24263444.852    99354754.978  
  22415934.648   117796529.664    22415941.504    91789530.859  
  21661123.734   113829973.200    21661130.164    88698709.203  
  20801744.406   109313906.598                                  
  21271480.703   111782388.322    21271486.336    87103182.312  
 18  1 15 22  8 30.0000000  0  9G 7G22G31G23G 6G 3G26G16G 9
  24002683.797   126134950.898    24002687.723    98286993.874  
  23919962.031   125700243.338                                  
  24752523.289   130075386.633    24752525.969   101357462.979  
  20357979.547   106981901.924                                  
  24263735.828                                                  
  22416531.180   117799661.813    22416537.449    91791971.490  
  21661354.688   113831187.096    21661361.145    88699655.095  
  20801514.070   109312697.247                                  
  21271008.891   111779908.192    21271014.406    87101249.733  
 18  1 15 22  8 31.0000000  0  9G 7G22G31G23G 6G 3G26G16G 9
  24002065.430   126131706.539    24002070.582    98284465.788  
  23920619.461   125703701.671                                  
  24753155.313   130078712.596    24753159.813   101360054.668  
  20357864.211   106981297.711                                  
  24264032.453                                                  
  22417127.156   117802794.925    22417133.355    91794412.871  
  21661585.852   113832402.279    21661592.551    88700601.984  
  20801284.250   109311489.267                                  
  21270536.977   111777428.955    21270542.246    87099317.868  
 18  1 15 22  8 32.0000000  0  8G 7G22G31G23G 3G26G16G 9
  24001447.805   126128462.834    24001453.016    98281938.211  
  23921278.445   125707160.765                                  
  24753788.492   130082039.248    24753792.918   101362646.875  
  20357749.508   106980694.600                                  
  22417723.219   117805928.980    22417730.090    91796854.999  
  21661817.227   113833618.708    21661824.059    88701549.828  
  20801054.688   109310282.644                                  
  21270065.688   111774950.733    21270070.891    87097386.787  
 18  1 15 22  8 33.0000000  0  9G 7G22G31G23G 6G 3G26G16G 9
  24000831.609   126125219.885    24000835.816    98279411.240  
  23921937.047   125710620.511                                  
  24754421.008   130085366.377    24754425.793   101365239.444  
  20357635.117   106980092.519                                  
  24264628.438                                                  
  22418319.523   117809064.000    22418326.715    91799297.877  
  21662049.172   113834836.335    21662055.746    88702498.617  
  20800825.234   109309077.309                                  
  21269594.305   111772473.321    21269599.805    87095456.346  
 18  1 15 22  8 34.0000000  0  9G 7G22G31G23G 6G 3G26G16G 9
  24000214.461   126121977.661    24000219.332    98276884.847  
  23922595.750   125714081.019                                  
  24755053.727   130088694.180    24755059.328   101367832.567  
  20357520.602   106979491.494                                  
  24264925.898                                                  
  22418916.680   117812199.914    22418923.582    91801741.453  
  21662281.070   113836055.178    21662287.953    88703448.368  
  20800596.477   109307873.300                                  
  21269122.648   111769996.894    21269128.027    87093526.672  
 18  1 15 22  8 35.0000000  0  9G 7G22G31G23G 6G 3G26G16G 9
  23999597.328   126118736.265    23999602.633    98274359.112  
  23923254.984   125717542.300                                  
  24755688.227   130092022.605    24755692.797   101370426.163  
  20357406.242   106978891.565                                  
  24265225.438                                                  
  22419513.875   117815336.823    22419521.109    91804185.807  
  21662513.289   113837275.322    21662519.875    88704399.132  
  20800367.617   109306670.691                                  
  21268651.680   111767521.435    21268657.297    87091597.729  
 18  1 15 22  8 36.0000000  0  9G 7G22G31G23G 6G 3G26G16G 9
  23998981.336   126115495.621    23998985.590    98271833.948  
  23923912.867   125721004.381                                  
  24756322.086   130095351.722    24756326.484   101373020.257  
  20357292.539   106978292.784                                  
  24265525.633                                                  
  22420110.281   117818474.791    22420117.367    91806630.975  
  21662745.500   113838496.744    21662752.414    88705350.902  
  20800138.898   109305469.470                                  
  21268180.813   111765046.997    21268185.859    87089669.598  
 18  1 15 22  8 37.0000000  0  9G 7G22G31G23G 6G 3G26G16G 9
  23998363.984   126112255.718    23998368.855    98269309.340  
  23924572.094   125724467.162                                  
  24756955.734   130098681.379    24756960.082   101375614.766  
  20357179.039   106977695.046                                  
  24265824.906   127517772.508    24265832.371    99364528.6531 
  22420707.625   117821613.625    22420715.172    91809076.811  
  21662978.367   113839719.393    21662985.031    88706303.625  
  20799910.469   109304269.559                                  
  21267709.844   111762573.430    21267714.949    87087742.137  
 18  1 15 22  8 38.0000000  0  9G 7G22G31G23G 6G 3G26G16G 9
  23997748.398   126109016.617    23997752.715    98266785.361  
  23925230.250   125727930.756                                  
  24757589.875   130102011.774    24757594.074   101378209.884  
  20357065.258   106977098.425                                  
  24266124.086   127519345.427    24266131.352    99365754.282  
  22421305.852   117824753.506    22421312.074    91811523.459  
  21663211.148   113840943.308    21663217.875    88707257.332  
  20799682.227   109303071.063                                  
  21267239.453   111760100.855    21267245.180    87085815.452  
 18  1 15 22  8 39.0000000  0  9G 7G22G31G23G 6G 3G26G16G 9
  23997132.023   126105778.237    23997136.316    98264261.954  
  23925889.961   125731395.039                                  
  24758222.875   130105342.756    24758227.344   101380805.434  
  20356952.125   106976502.870                                  
  24266424.195   127520919.396    24266430.996    99366980.734  
  22421903.031   117827894.284    22421910.441    91813970.820  
  21663444.117   113842168.476    21663451.270    88708212.015  
  20799454.516   109301873.872                                  
  21266769.406   111757629.211    21266774.922    87083889.496  
 18  1 15 22  8 40.0000000  0  9G 7G22G31G23G 6G 3G26G16G 9
  23996515.695   126102540.612    23996520.559    98261739.160  
  23926549.195   125734860.120                                  
  24758857.086   130108674.306    24758861.477   101383401.431  
  20356838.945   106975908.395                                  
  24266723.695   127522494.501    24266731.262    99368208.140  
  22422501.320   117831036.019    22422507.918    91816418.915  
  21663677.500   113843394.844    21663684.539    88709167.614  
  20799226.992   109300677.999                                  
  21266299.648   111755158.520    21266304.938    87081964.293  
 18  1 15 22  8 41.0000000  0  9G 7G22G31G23G 6G 3G26G16G 9
  23995899.500   126099303.645    23995903.992    98259216.871  
  23927209.109   125738325.854                                  
  24759491.484   130112006.429    24759495.383   101385997.884  
  20356725.984   106975314.910                                  
  24267023.906   127524070.666    24267031.031    99369436.368  
  22423099.695   117834178.596    22423105.473    91818867.673  
  21663911.203   113844622.381    21663917.758    88710124.139  
  20798999.727   109299483.431                                  
  21265829.906   111752688.663    21265834.930    87080039.730  
 18  1 15 22  8 42.0000000  0  9G 7G22G31G23G 6G 3G26G16G 9
  23995283.281   126096067.389    23995288.430    98256695.127  
  23927868.289   125741792.220                                  
  24760126.664   130115339.132    24760129.758   101388594.813  
  20356613.102   106974722.462                                  
  24267324.328   127525647.876    24267331.016    99370665.384  
  22423697.453   117837322.126    22423703.852    91821317.176  
  21664145.148   113845851.124    21664151.996    88711081.606  
  20798772.719   109298290.144                                  
  21265359.227   111750219.694    21265364.734    87078115.854  
 18  1 15 22  8 43.0000000  0  9G 7G22G31G23G 6G 3G26G16G 9
  23994669.445   126092831.813    23994672.836    98254173.872  
  23928528.492   125745259.245                                  
  24760759.281   130118672.354    24760764.063   101391192.160  
  20356500.547   106974130.982                                  
  24267624.945   127527226.070    24267631.066    99371895.092  
  22424295.781   117840466.521    22424301.848    91823767.358  
  21664379.016   113847081.008    21664385.777    88712039.955  
  20798546.016   109297098.101                                  
  21264889.922   111747751.573    21264895.117    87076192.640  
 18  1 15 22  8 44.0000000  0  9G 7G22G31G23G 6G 3G26G16G 9
  23994053.445   126089596.883    23994056.809    98251653.117  
  23929188.281   125748726.978                                  
  24761393.930   130122006.101    24761398.465   101393789.883  
  20356388.250   106973540.509                                  
  24267924.914   127528805.324    24267931.352    99373125.626  
  22424894.242   117843611.743    22424901.410    91826218.193  
  21664613.484   113848312.069    21664620.480    88712999.214  
  20798319.344   109295907.339                                  
  21264420.664   111745284.318    21264425.965    87074270.119  
 18  1 15 22  8 45.0000000  0  9G 7G22G31G23G 6G 3G26G16G 9
  23993437.094   126086362.539    23993441.445    98249132.853  
  23929848.539   125752195.325                                  
  24762029.078   130125340.353    24762033.145   101396387.993  
  20356276.039   106972951.018                                  
  24268225.797   127530385.634    24268232.160    99374357.015  
  22425492.883   117846757.871    22425499.641    91828669.734  
  21664848.086   113849544.233    21664854.965    88713959.344  
  20798093.055   109294717.799                                  
  21263951.242   111742817.874    21263956.535    87072348.217  
 18  1 15 22  8 46.0000000  0  9G 7G22G31G23G 6G 3G26G16G 9
  23992822.398   126083129.011    23992826.508    98246613.214  
  23930508.703   125755664.361                                  
  24762663.195   130128675.211    24762667.199   101398986.592  
  20356164.125   106972362.548                                  
  24268526.414   127531966.951    24268532.766    99375589.235  
  22426091.953   117849904.884    22426098.660    91831121.948  
  21665082.461   113850777.635    21665088.730    88714920.441  
  20797866.805   109293529.578                                  
  21263481.922   111740352.391    21263487.070    87070427.058  
 18  1 15 22  8 47.0000000  0  9G 7G22G31G23G 6G 3G26G16G 9
  23992207.578   126079896.119    23992210.801    98244094.065  
  23931168.047   125759134.140                                  
  24763297.477   130132010.712    24763301.898   101401585.698  
  20356051.938   106971775.144                                  
  24268827.242   127533549.318    24268834.512    99376822.272  
  22426691.602   117853052.838    22426697.949    91833574.895  
  21665317.492   113852012.241    21665324.316    88715882.478  
  20797640.820   109292342.684                                  
  21263012.914   111737887.781    21263018.207    87068506.579  
 18  1 15 22  8 48.0000000  0  9G 7G22G31G23G 6G 3G26G16G 9
  23991592.750   126076663.902    23991596.125    98241575.470  
  23931828.867   125762604.568                                  
  24763932.898   130135346.695    24763936.148   101404185.185  
  20355940.398   106971188.715                                  
  24269128.828   127535132.767    24269135.738    99378056.113  
  22427290.570   117856201.631    22427297.219    91836028.491  
  21665552.883   113853247.983    21665559.520    88716845.388  
  20797415.344   109291157.026                                  
  21262543.805   111735424.034    21262549.156    87066586.771  
 18  1 15 22  8 49.0000000  0 10G29G 7G22G31G23G 6G 3G26G16G 9
  24829707.844   130480992.1321   24829711.992   101673531.1561 
  23990977.055   126073432.400    23990981.047    98239057.421  
  23932488.430   125766075.710                                  
  24764568.305   130138683.305    24764570.828   101406785.138  
  20355829.352   106970603.300                                  
  24269429.945   127536717.239    24269437.410    99379290.757  
  22427889.438   117859351.348    22427896.164    91838482.818  
  21665788.203   113854484.923    21665794.699    88717809.234  
  20797190.016   109289972.672                                  
  21262075.211   111732961.146    21262080.633    87064667.641  
 18  1 15 22  8 50.0000000  0 10G29G 7G22G31G23G 6G 3G26G16G 9
  24829867.430   130481830.821    24829871.953   101674184.680  
  23990362.398   126070201.565    23990366.152    98236539.890  
  23933149.344   125769547.537                                  
  24765202.828   130142020.417    24765206.172   101409385.463  
  20355717.805   106970018.913                                  
  24269732.164   127538302.831    24269739.488    99380526.269  
  22428489.469   117862501.939    22428495.965    91840937.831  
  21666023.766   113855723.048    21666030.594    88718773.999  
  20796964.484   109288789.592                                  
  21261606.805   111730499.156    21261611.945    87062749.210  
 18  1 15 22  8 51.0000000  0 10G29G 7G22G31G23G 6G 3G26G16G 9
  24830026.445   130482670.701    24830030.906   101674839.137  
  23989747.711   126066971.472    23989751.574    98234022.944  
  23933810.289   125773020.041                                  
  24765838.406   130145358.139    24765841.664   101411986.271  
  20355607.055   106969435.568                                  
  24270034.164   127539889.467    24270041.609    99381762.593  
  22429089.016   117865653.467    22429095.531    91843393.574  
  21666259.828   113856962.378    21666266.398    88719739.714  
  20796740.000   109287607.838                                  
  21261138.469   111728038.099    21261143.805    87060831.502  
 18  1 15 22  8 52.0000000  0 10G29G 7G22G31G23G 6G 3G26G16G 9
  24830187.000   130483511.728    24830191.246   101675494.485  
  23989132.055   126063742.026    23989137.098    98231506.501  
  23934471.664   125776493.225                                  
  24766472.930   130148696.432    24766477.598   101414587.534  
  20355496.414   106968853.230                                  
  24270335.719   127541477.141    24270344.180    99382999.736  
  22429688.828   117868805.837    22429695.277    91845849.963  
  21666495.930   113858202.872    21666502.141    88720706.327  
  20796514.930   109286427.329                                  
  21260670.531   111725577.877    21260675.828    87058914.442  
 18  1 15 22  8 53.0000000  0 10G29G 7G22G31G23G 6G 3G26G16G 9
  24830347.727   130484353.861    24830351.777   101676150.688  
  23988518.617   126060513.255    23988522.496    98228990.561  
  23935132.805   125779967.002                                  
  24767108.641   130152035.161    24767113.172   101417189.148  
  20355385.445   106968271.831                                  
  24270636.180   127543065.813    24270646.121    99384237.678  
  22430288.781   117871959.065    22430295.309    91848307.020  
  21666731.891   113859444.476    21666738.688    88721673.811  
  20796290.617   109285248.056                                  
  21260202.281   111723118.481    21260207.664    87056998.046  
 18  1 15 22  8 54.0000000  0 10G29G 7G22G31G23G 6G 3G26G16G 9
  24830507.711   130485197.126    24830512.266   101676807.777  
  23987904.109   126057285.096    23987908.242    98226475.104  
  23935793.930   125783441.467                                  
  24767744.438   130155374.418    24767748.102   101419791.171  
  20355275.172   106967691.431                                  
  24270939.633   127544655.446    24270948.215    99385476.352  
  22430888.977   117875113.171    22430895.734    91850764.767  
  21666968.594   113860687.242    21666975.035    88722642.209  
  20796066.891   109284070.050                                  
  21259734.461   111720659.936    21259739.438    87055082.290  
 18  1 15 22  8 55.0000000  0 10G29G 7G22G31G23G 6G 3G26G16G 9
  24830668.664   130486041.595    24830673.180   101677465.815  
  23987289.875   126054057.636    23987294.371    98223960.186  
  23936454.977   125786916.575                                  
  24768380.477   130158714.226    24768383.711   101422393.630  
  20355164.953   106967112.043                                  
  24271243.813   127546246.127    24271250.508    99386715.842  
  22431488.734   117878268.115    22431495.977    91853223.163  
  21667205.039   113861931.172    21667211.449    88723611.512  
  20795842.727   109282893.317                                  
  21259266.609   111718202.246    21259271.801    87053167.205  
 18  1 15 22  8 56.0000000  0 10G29G 7G22G31G23G 6G 3G26G16G 9
  24830829.820   130486887.227    24830833.605   101678124.764  
  23986675.531   126050830.774    23986680.234    98221445.746  
  23937115.750   125790392.320                                  
  24769015.969   130162054.556    24769019.762   101424996.479  
  20355055.023   106966533.608                                  
  24271545.781   127547837.837    24271553.617    99387956.125  
  22432089.602   117881423.941    22432096.305    91855682.252  
  21667442.164   113863176.225    21667448.684    88724581.691  
  20795619.055   109281717.830                                  
  21258799.203   111715745.393    21258804.031    87051252.776  
 18  1 15 22  8 57.0000000  0 10G29G 7G22G31G23G 6G 3G26G16G 9
  24830990.828   130487733.910    24830995.137   101678784.525  
  23986061.531   126047604.674    23986066.199    98218931.911  
  23937778.477   125793868.845                                  
  24769651.750   130165395.525    24769655.398   101427599.819  
  20354945.023   106965956.263                                  
  24271849.727   127549430.652    24271857.004    99389197.284  
  22432690.336   117884580.719    22432696.789    91858142.079  
  21667679.258   113864422.529    21667686.102    88725552.841  
  20795395.609   109280543.698                                  
  21258331.852   111713289.491    21258336.996    87049339.091  
 18  1 15 22  8 58.0000000  0 10G29G 7G22G31G23G 6G 3G26G16G 9
  24831151.844   130488581.791    24831156.168   101679445.195  
  23985448.047   126044379.192    23985452.363    98216418.557  
  23938439.445   125797345.917                                  
  24770287.688   130168736.952    24770290.914   101430203.532  
  20354835.273   106965379.803                                  
  24272153.414   127551024.429    24272160.340    99390439.212  
  22433291.367   117887738.252    22433297.766    91860602.494  
  21667916.383   113865669.929    21667923.012    88726524.838  
  20795172.313   109279370.751                                  
  21257864.969   111710834.372    21257870.051    87047426.011  
 18  1 15 22  8 59.0000000  0 10G29G 7G22G31G23G 6G 3G26G16G 9
  24831313.234   130489430.780    24831317.426   101680106.751  
  23984833.969   126041154.315    23984839.484    98213905.680  
  23939102.203   125800823.634                                  
  24770923.047   130172078.868    24770926.574   101432807.617  
  20354725.672   106964804.327                                  
  24272456.070   127552619.169    24272463.555    99391681.876  
  22433892.219   117890896.649    22433899.164    91863063.584  
  21668153.953   113866918.417    21668160.754    88727497.679  
  20794949.039   109278199.019                                  
  21257397.758   111708380.058    21257403.051    87045513.556  
 18  1 15 22  9  0.0000000  0 10G29G 7G22G31G23G 6G 3G26G16G 9
  24831475.508   130490280.954    24831479.527   101680769.213  
  23984221.352   126037930.142    23984225.527    98211393.349  
  23939763.656   125804302.009                                  
  24771559.328   130175421.296    24771562.520   101435412.110  
  20354616.227   106964229.849                                  
  24272760.508   127554214.964    24272767.203    99392925.355  
  22434493.641   117894055.922    22434500.156    91865525.352  
  21668391.766   113868168.084    21668398.301    88728471.450  
  20794726.438   109277028.582                                  
  21256930.641   111705926.639    21256935.809    87043601.802  
 18  1 15 22  9  1.0000000  0 10G29G 7G22G31G23G 6G 3G26G16G 9
  24831637.430   130491132.257    24831641.645   101681432.580  
  23983607.305   126034706.689    23983611.887    98208881.568  
  23940425.406   125807781.063                                  
  24772194.883   130178764.367    24772198.902   101438017.091  
  20354507.320   106963656.415                                  
  24273063.422   127555811.836    24273071.066    99394169.667  
  22435095.000   117897216.095    22435101.664    91867987.814  
  21668630.023   113869418.955    21668636.867    88729446.160  
  20794504.141   109275859.435                                  
  21256464.188   111703474.098    21256469.598    87041690.732  
 18  1 15 22  9  2.0000000  0 10G29G 7G22G31G23G 6G 3G26G16G 9
  24831799.727   130491984.716    24831803.680   101682096.835  
  23982994.875   126031483.838    23982998.703    98206370.252  
  23941087.844   125811260.742                                  
  24772831.305   130182107.897    24772835.391   101440622.430  
  20354398.242   106963083.919                                  
  24273368.078   127557409.670    24273375.211    99395414.728  
  22435696.172   117900377.094    22435703.344    91870450.928  
  21668868.398   113870670.945    21668875.188    88730421.742  
  20794281.609   109274691.502                                  
  21255997.563   111701022.368    21256002.289    87039780.288  
 18  1 15 22  9  3.0000000  0 10G29G 7G22G31G23G 6G 3G26G16G 9
  24831961.844   130492838.239    24831966.488   101682761.919  
  23982381.242   126028261.594    23982385.613    98203859.405  
  23941750.414   125814741.040                                  
  24773467.414   130185451.923    24773471.238   101443228.162  
  20354289.555   106962512.384                                  
  24273671.922   127559008.494    24273679.086    99396660.563  
  22436297.898   117903538.938    22436304.660    91872914.705  
  21669106.664   113871924.029    21669113.324    88731398.173  
  20794059.805   109273524.799                                  
  21255530.930   111698571.459    21255536.000    87037870.492  
 18  1 15 22  9  4.0000000  0 10G29G 7G22G31G23G 6G 3G26G16G 9
  24832124.828   130493692.894    24832129.223   101683427.885  
  23981767.719   126025039.967    23981772.117    98201349.037  
  23942412.594   125818221.961                                  
  24774104.258   130188796.444    24774108.129   101445834.270  
  20354180.977   106961941.788                                  
  24273976.945   127560608.308    24273983.434    99397907.167  
  22436899.867   117906701.572    22436906.621    91875379.088  
  21669345.227   113873178.241    21669351.988    88732375.478  
  20793838.258   109272359.302                                  
  21255064.992   111696121.363    21255069.898    87035961.324  
 18  1 15 22  9  5.0000000  0 10G29G 7G22G31G23G 6G 3G26G16G 9
  24832287.711   130494548.637    24832291.664   101684094.702  
  23981155.352   126021819.005    23981159.422    98198839.196  
  23943075.828   125821703.503                                  
  24774740.836   130192141.487    24774744.340   101448440.796  
  20354072.852   106961372.153                                  
  24274281.305   127562209.092    24274288.160    99399154.530  
  22437501.859   117909865.075    22437508.691    91877844.159  
  21669584.305   113874433.569    21669591.117    88733353.653  
  20793616.938   109271195.050                                  
  21254598.398   111693672.101    21254604.023    87034052.811  
 18  1 15 22  9  6.0000000  0 10G29G 7G22G31G23G 6G 3G26G16G 9
  24832450.758   130495405.464    24832454.406   101684762.356  
  23980542.242   126018598.626    23980546.633    98196329.812  
  23943738.063   125825185.611                                  
  24775376.742   130195486.972    24775381.617   101451047.676  
  20353964.422   106960803.427                                  
  24274587.211   127563810.850    24274593.352    99400402.651  
  22438103.938   117913029.351    22438110.816    91880309.826  
  21669823.258   113875689.978    21669829.949    88734332.677  
  20793395.016   109270031.981                                  
  21254133.102   111691223.605    21254137.875    87032144.894  
 18  1 15 22  9  7.0000000  0 11G 2G29G 7G22G31G23G 6G 3G26G16G 9
  25110901.008   131958640.6211                                 
  24832614.031   130496263.450    24832618.477   101685430.921  
  23979929.695   126015378.896    23979934.262    98193820.932  
  23944400.938   125828668.364                                  
  24776013.406   130198832.996    24776018.527   101453654.975  
  20353856.203   106960235.685                                  
  24274891.477   127565413.632    24274898.660    99401651.568  
  22438706.297   117916194.473    22438712.859    91882776.156  
  21670062.563   113876947.542    21670069.523    88735312.596  
  20793174.359   109268870.129                                  
  21253667.047   111688775.981    21253671.914    87030237.653  
 18  1 15 22  9  8.0000000  0 11G 2G29G 7G22G31G23G 6G 3G26G16G 9
  25110859.211   131958425.021                                  
  24832777.289   130497122.545    24832781.754   101686100.346  
  23979317.055   126012159.804    23979321.020    98191312.554  
  23945063.453   125832151.780                                  
  24776650.805   130202179.497    24776655.031   101456262.640  
  20353748.602   106959668.934                                  
  24275196.219   127567017.409    24275203.402    99402901.262  
  22439309.031   117919360.447    22439315.648    91885243.151  
  21670302.344   113878206.229    21670308.465    88736293.393  
  20792953.555   109267709.557                                  
  21253201.320   111686329.155    21253206.336    87028331.040  
 18  1 15 22  9  9.0000000  0 11G 2G29G 7G22G31G23G 6G 3G26G16G 9
  25110817.969   131958210.474                                  
  24832940.672   130497982.771    24832945.082   101686770.655  
  23978704.094   126008941.348    23978709.004    98188804.667  
  23945726.930   125835635.807                                  
  24777287.914   130205526.549    24777291.770   101458870.726  
  20353640.914   106959103.158                                  
  24275501.563   127568622.185    24275508.699    99404151.723  
  22439911.227   117922527.278    22439918.387    91887710.813  
  21670541.891   113879466.057    21670548.434    88737275.069  
  20792732.898   109266550.222                                  
  21252735.953   111683883.193    21252741.016    87026425.096  
 18  1 15 22  9 10.0000000  0 11G 2G29G 7G22G31G23G 6G 3G26G16G 9
  25110777.758   131957997.002                                  
  24833105.469   130498844.108    24833108.891   101687441.821  
  23978092.242   126005723.525    23978096.230    98186297.273  
  23946389.828   125839120.449                                  
  24777924.125   130208874.118    24777928.281   101461479.220  
  20353533.344   106958538.321                                  
  24275807.383   127570227.950    24275814.227    99405402.967  
  22440514.164   117925694.948    22440521.133    91890179.127  
  21670782.063   113880727.003    21670788.766    88738257.626  
  20792512.086   109265392.108                                  
  21252270.594   111681438.051    21252275.855    87024519.786  
 18  1 15 22  9 11.0000000  0 11G 2G29G 7G22G31G23G 6G 3G26G16G 9
  25110738.227   131957784.528                                  
  24833269.445   130499706.546    24833272.996   101688113.845  
  23977480.508   126002506.355    23977483.828    98183790.390  
  23947053.023   125842605.728                                  
  24778562.109   130212222.134    24778565.043   101464088.057  
  20353425.977   106957974.460                                  
  24276112.625   127571834.681    24276120.246    99406654.961  
  22441117.039   117928863.448    22441123.852    91892648.087  
  21671021.852   113881989.059    21671029.012    88739241.045  
  20792291.688   109264235.226                                  
  21251805.586   111678993.714    21251810.621    87022615.110  
 18  1 15 22  9 12.0000000  0 11G 2G29G 7G22G31G23G 6G 3G26G16G 9
  25110698.203   131957573.242                                  
  24833432.758   130500570.170    24833436.820   101688786.799  
  23976868.836   125999289.836    23976872.402    98181284.005  
  23947716.016   125846091.677                                  
  24779199.359   130215570.724    24779202.430   101466697.345  
  20353318.922   106957411.599                                  
  24276418.602   127573442.473    24276426.258    99407907.789  
  22441720.227   117932032.829    22441726.867    91895117.728  
  21671262.172   113883252.293    21671268.648    88740225.383  
  20792072.102   109263079.608                                  
  21251340.094   111676550.263    21251345.586    87020711.126  
 18  1 15 22  9 13.0000000  0 11G 2G29G 7G22G31G23G 6G 3G26G16G 9
  25110658.039   131957362.861                                  
  24833597.414   130501434.892    24833602.016   101689460.605  
  23976256.680   125996073.970    23976260.246    98178778.138  
  23948379.391   125849578.273                                  
  24779836.461   130218919.816    24779840.137   101469307.036  
  20353211.898   106956849.712                                  
  24276725.539   127575051.262    24276732.844    99409161.392  
  22442323.492   117935203.027    22442330.055    91897588.011  
  21671502.969   113884516.657    21671509.504    88741210.598  
  20791852.141   109261925.235                                  
  21250875.906   111674107.646    21250880.902    87018807.790  
 18  1 15 22  9 14.0000000  0 11G 2G29G 7G22G31G23G 6G 3G26G16G 9
  25110617.594   131957153.685                                  
  24833762.266   130502300.855    24833766.621   101690135.380  
  23975644.586   125992858.825    23975648.184    98176272.837  
  23949043.664   125853065.561                                  
  24780474.172   130222269.512    24780477.668   101471917.193  
  20353105.180   106956288.884                                  
  24277030.695   127576661.143    24277039.160    99410415.850  
  22442926.922   117938374.158    22442933.656    91900059.021  
  21671743.586   113885782.244    21671750.527    88742196.774  
  20791632.867   109260772.182                                  
  21250411.336   111671665.952    21250416.207    87016905.177  
 18  1 15 22  9 15.0000000  0 11G 2G29G 7G22G31G23G 6G 3G26G16G 9
  25110578.047   131956945.554                                  
  24833927.039   130503167.922    24833931.949   101690811.017  
  23975033.523   125989644.366    23975036.488    98173768.072  
  23949706.664   125856553.518                                  
  24781111.227   130225619.745    24781115.340   101474527.769  
  20352998.273   106955729.032                                  
  24277337.938   127578272.037    24277345.301    99411671.088  
  22443530.430   117941546.165    22443537.188    91902530.717  
  21671984.797   113887048.978    21671991.613    88743183.838  
  20791413.711   109259620.379                                  
  21249947.156   111669225.094    21249952.219    87015003.205  
 18  1 15 22  9 16.0000000  0 11G 2G29G 7G22G31G23G 6G 3G26G16G 9
  25110538.914   131956738.545                                  
  24834091.688   130504036.198    24834097.156   101691487.594  
  23974422.016   125986430.589    23974425.297    98171263.826  
  23950370.469   125860042.164                                  
  24781748.703   130228970.521    24781752.766   101477138.771  
  20352892.336   106955170.216                                  
  24277644.813   127579883.968    24277651.898    99412927.133  
  22444134.813   117944719.081    22444141.391    91905003.117  
  21672226.063   113888316.883    21672232.926    88744171.817  
  20791195.031   109258469.873                                  
  21249482.313   111666785.138    21249487.617    87013101.941  
 18  1 15 22  9 17.0000000  0 11G 2G29G 7G22G31G23G 6G 3G26G16G 9
  25110499.781   131956532.681                                  
  24834258.242   130504905.703    24834262.363   101692165.128  
  23973809.672   125983217.562    23973813.840    98168760.160  
  23951034.719   125863531.544                                  
  24782386.555   130232321.918    24782390.508   101479750.255  
  20352786.344   106954612.472                                  
  24277951.844   127581497.039    24277959.012    99414184.073  
  22444738.453   117947892.912    22444745.215    91907476.236  
  21672467.586   113889586.031    21672474.598    88745160.766  
  20790976.367   109257320.700                                  
  21249018.164   111664346.119    21249023.199    87011201.407  
 18  1 15 22  9 18.0000000  0 11G 2G29G 7G22G31G23G 6G 3G26G16G 9
  25110459.875   131956327.933                                  
  24834423.898   130505776.381    24834427.906   101692843.578  
  23973197.867   125980005.227    23973202.965    98166257.032  
  23951699.484   125867021.621                                  
  24783023.766   130235673.920    24783028.012   101482362.206  
  20352680.352   106954055.771                                  
  24278258.031   127583111.172    24278266.469    99415441.831  
  22445342.711   117951067.701    22445349.285    91909950.097  
  21672709.336   113890856.402    21672715.625    88746150.667  
  20790757.914   109256172.861                                  
  21248554.219   111661908.004    21248559.496    87009301.581  
 18  1 15 22  9 19.0000000  0 11G 2G29G 7G22G31G23G 6G 3G26G16G 9
  25110421.133   131956124.271                                  
  24834589.484   130506648.193    24834593.992   101693522.911  
  23972587.516   125976793.595    23972591.535    98163754.462  
  23952363.094   125870512.379                                  
  24783662.398   130239026.446    24783666.023   101484974.562  
  20352574.695   106953500.076                                  
  24278566.367   127584726.317    24278573.512    99416700.388  
  22445947.148   117954243.348    22445953.520    91912424.625  
  21672951.125   113892127.920    21672958.148    88747141.456  
  20790539.945   109255026.290                                  
  21248090.406   111659470.772    21248095.945    87007402.439  
 18  1 15 22  9 20.0000000  0 11G 2G29G 7G22G31G23G 6G 3G26G16G 9
  25110382.852   131955921.739                                  
  24834755.258   130507521.234    24834759.457   101694203.214  
  23971976.328   125973582.665    23971980.254    98161252.439  
  23953027.570   125874003.834                                  
  24784300.938   130242379.585    24784304.125   101487587.401  
  20352469.094   106952945.417                                  
  24278874.188   127586342.571    24278880.934    99417959.809  
  22446551.484   117957419.867    22446558.086    91914899.838  
  21673193.492   113893400.659    21673200.699    88748133.204  
  20790321.953   109253881.036                                  
  21247626.781   111657034.444    21247632.410    87005504.006  
 18  1 15 22  9 21.0000000  0 11G 2G29G 7G22G31G23G 6G 3G26G16G 9
  25110344.281   131955720.431                                  
  24834922.844   130508395.501    24834926.793   101694884.471  
  23971365.227   125970372.513    23971369.762    98158751.024  
  23953692.164   125877496.054                                  
  24784938.648   130245733.343    24784943.027   101490200.721  
  20352363.734   106952391.868                                  
  24279181.961   127587959.961    24279188.410    99419220.112  
  22447155.695   117960597.433    22447162.855    91917375.864  
  21673436.203   113894674.665    21673443.090    88749125.938  
  20790104.375   109252737.140                                  
  21247163.836   111654599.084    21247168.605    87003606.325  
 18  1 15 22  9 22.0000000  0 11G 2G29G 7G22G31G23G 6G 3G26G16G 9
  25110306.859   131955520.209                                  
  24835089.477   130509271.016    24835093.262   101695566.701  
  23970754.508   125967163.116    23970759.184    98156250.197  
  23954356.711   125880989.017                                  
  24785577.609   130249087.729    24785580.844   101492814.526  
  20352258.320   106951839.406                                  
  24279489.344   127589578.417    24279496.043    99420481.251  
  22447760.836   117963775.924    22447767.613    91919852.610  
  21673678.500   113895949.908    21673685.152    88750119.633  
  20789886.742   109251594.612                                  
  21246700.188   111652164.648    21246705.207    87001709.360  
 18  1 15 22  9 23.0000000  0 11G 2G29G 7G22G31G23G 6G 3G26G16G 9
  25110268.000   131955321.125                                  
  24835256.320   130510147.724    24835259.734   101696249.855  
  23970144.391   125963954.424    23970148.711    98153749.918  
  23955021.805   125884482.703                                  
  24786215.727   130252442.703    24786219.699   101495428.795  
  20352153.617   106951287.967                                  
  24279797.500   127591197.962    24279804.965    99421743.234  
  22448365.742   117966955.304    22448372.098    91922330.044  
  21673921.539   113897226.329    21673928.094    88751114.250  
  20789669.258   109250453.383                                  
  21246236.703   111649731.137    21246241.977    86999813.118  
 18  1 15 22  9 24.0000000  0 11G 2G29G 7G22G31G23G 6G 3G26G16G 9
  25110231.094   131955123.208                                  
  24835422.906   130511025.665    24835427.246   101696933.961  
  23969533.914   125960746.484    23969537.633    98151250.224  
  23955686.414   125887977.087                                  
  24786854.359   130255798.269    24786858.453   101498043.524  
  20352048.781   106950737.614                                  
  24280106.320   127592818.640    24280113.359    99423006.096  
  22448970.984   117970135.645    22448977.598    91924808.235  
  21674164.977   113898504.016    21674171.234    88752109.846  
  20789452.609   109249313.493                                  
  21245773.797   111647298.570    21245779.047    86997917.612  
 18  1 15 22  9 25.0000000  0 11G 2G29G 7G22G31G23G 6G 3G26G16G 9
  25110193.281   131954926.438                                  
  24835590.523   130511904.836    24835594.391   101697619.027  
  23968922.828   125957539.310    23968928.402    98148751.119  
  23956351.953   125891472.227                                  
  24787492.992   130259154.463    24787497.352   101500658.751  
  20351944.242   106950188.342                                  
  24280414.211   127594440.376    24280422.148    99424269.795  
  22449576.297   117973316.935    22449582.984    91927287.159  
  21674407.898   113899782.923    21674414.563    88753106.398  
  20789235.828   109248174.961                                  
  21245311.375   111644866.921    21245316.199    86996022.823  
 18  1 15 22  9 26.0000000  0 11G 2G29G 7G22G31G23G 6G 3G26G16G 9
  25110156.531   131954730.805                                  
  24835758.016   130512785.188    24835761.785   101698305.007  
  23968312.500   125954332.808    23968318.332    98146252.542  
  23957017.016   125894968.059                                  
  24788131.719   130262511.208    24788135.785   101503274.393  
  20351839.625   106949640.082                                  
  24280722.758   127596063.205    24280730.922    99425534.330  
  22450181.688   117976499.132    22450188.824    91929766.791  
  21674651.391   113901063.018    21674658.520    88754103.872  
  20789019.547   109247037.724                                  
  21244848.727   111642436.188    21244853.875    86994128.749  
 18  1 15 22  9 27.0000000  0 11G 2G29G 7G22G31G23G 6G 3G26G16G 9
  25110119.227   131954536.225                                  
  24835925.609   130513666.692    24835929.742   101698991.896  
  23967702.242   125951127.018    23967707.691    98143754.524  
  23957682.719   125898464.558                                  
  24788770.602   130265868.545    24788774.676   101505890.493  
  20351735.977   106949092.874                                  
  24281032.523   127597687.104    24281039.520    99426799.705  
  22450787.352   117979682.237    22450794.602    91932247.131  
  21674895.242   113902344.312    21674902.375    88755102.283  
  20788803.000   109245901.791                                  
  21244386.734   111640006.326    21244391.438    86992235.352  
 18  1 15 22  9 28.0000000  0 11G 2G29G 7G22G31G23G 6G 3G26G16G 9
  25110082.984   131954342.839                                  
  24836092.914   130514549.497    24836097.578   101699679.799  
  23967091.977   125947921.966    23967097.172    98141257.087  
  23958348.234   125901961.824                                  
  24789409.578   130269226.544    24789413.570   101508507.113  
  20351632.008   106948546.738                                  
  24281341.258   127599312.101    24281348.988    99428065.930  
  22451393.445   117982866.287    22451400.684    91934728.211  
  21675139.414   113903626.826    21675146.523    88756101.646  
  20788587.266   109244767.207                                  
  21243924.250   111637577.434    21243929.449    86990342.707  
 18  1 15 22  9 29.0000000  0 11G 2G29G 7G22G31G23G 6G 3G26G16G 9
  25110046.086   131954150.559                                  
  24836261.898   130515433.432    24836265.684   101700368.579  
  23966482.992   125944717.625    23966487.395    98138760.214  
  23959013.695   125905459.803                                  
  24790048.789   130272585.093    24790052.414   101511124.150  
  20351528.273   106948001.661                                  
  24281650.977   127600938.142    24281658.055    99429332.965  
  22451999.852   117986051.239    22452006.590    91937209.993  
  21675383.695   113904910.568    21675390.270    88757101.971  
  20788371.500   109243633.927                                  
  21243462.414   111635149.420    21243467.727    86988450.749  
 18  1 15 22  9 30.0000000  0 11G 2G29G 7G22G31G23G 6G 3G26G16G 9
  25110009.695   131953959.409                                  
  24836429.891   130516318.620    24836434.301   101701058.337  
  23965873.609   125941514.004    23965877.734    98136263.891  
  23959679.914   125908958.451                                  
  24790688.445   130275944.185    24790691.430   101513741.617  
  20351425.133   106947457.597                                  
  24281960.039   127602565.265    24281968.051    99430600.849  
  22452605.969   117989237.100    22452612.648    91939692.479  
  21675628.063   113906195.498    21675635.254    88758103.214  
  20788156.242   109242501.943                                  
  21243000.656   111632722.330    21243005.277    86986559.506  
 18  1 15 22  9 31.0000000  0 11G 2G29G 7G22G31G23G 6G 3G26G16G 9
  25109973.500   131953769.402                                  
  24836598.359   130517204.998    24836602.887   101701749.023  
  23965263.625   125938311.145    23965268.828    98133768.163  
  23960345.250   125912457.853                                  
  24791327.156   130279303.920    24791330.379   101516359.588  
  20351321.602   106946914.628                                  
  24282271.000   127604193.496    24282277.746    99431869.598  
  22453212.625   117992423.928    22453218.813    91942175.719  
  21675873.094   113907481.678    21675879.996    88759105.431  
  20787941.258   109241371.338                                  
  21242538.727   111630296.179    21242543.871    86984669.000  
 18  1 15 22  9 32.0000000  0 11G 2G29G 7G22G31G23G 6G 3G26G16G 9
  25109937.602   131953580.602                                  
  24836767.508   130518092.633    24836771.191   101702440.690  
  23964654.539   125935109.059    23964659.605    98131273.033  
  23961010.820   125915958.006                                  
  24791967.227   130282664.314    24791970.430   101518978.070  
  20351218.531   106946372.761                                  
  24282580.594   127605822.878    24282587.699    99433139.255  
  22453819.125   117995611.715    22453825.770    91944659.709  
  21676117.805   113908769.110    21676124.977    88760108.625  
  20787726.227   109240242.088                                  
  21242076.906   111627871.004    21242082.059    86982779.255  
 18  1 15 22  9 33.0000000  0 11G 2G29G 7G22G31G23G 6G 3G26G16G 9
  25109901.781   131953392.823                                  
  24836936.047   130518981.431    24836940.699   101703133.260  
  23964045.500   125931907.619    23964050.160    98128778.405  
  23961677.867   125919458.822                                  
  24792605.539   130286025.234    24792610.238   101521596.971  
  20351115.492   106945831.885                                  
  24282890.711   127607453.248    24282898.508    99434409.681  
  22454426.023   117998800.363    22454432.582    91947144.362  
  21676363.219   113910057.696    21676370.066    88761112.719  
  20787511.883   109239114.105                                  
  21241616.242   111625446.672    21241620.867    86980890.172  
 18  1 15 22  9 34.0000000  0 11G 2G29G 7G22G31G23G 6G 3G26G16G 9
  25109866.289   131953206.191                                  
  24837105.359   130519871.438    24837110.156   101703826.773  
  23963436.383   125928706.923    23963440.887    98126284.352  
  23962343.461   125922960.348                                  
  24793245.633   130289386.728    24793250.180   101524216.317  
  20351012.750   106945292.046                                  
  24283201.609   127609084.694    24283208.738    99435680.940  
  22455032.648   118001989.934    22455039.242    91949629.741  
  21676608.727   113911347.478    21676615.598    88762117.740  
  20787297.375   109237987.427                                  
  21241154.516   111623023.270    21241159.660    86979001.805  
 18  1 15 22  9 35.0000000  0 11G 2G29G 7G22G31G23G 6G 3G26G16G 9
  25109830.977   131953020.714                                  
  24837275.234   130520762.611    24837279.688   101704521.183  
  23962827.758   125925506.922    23962832.117    98123790.849  
  23963010.297   125926462.575                                  
  24793885.219   130292748.815    24793889.086   101526836.126  
  20350909.969   106944753.248                                  
  24283511.336   127610717.230    24283519.199    99436953.045  
  22455639.094   118005180.400    22455646.547    91952115.813  
  21676854.469   113912638.485    21676861.328    88763123.720  
  20787083.031   109236862.081                                  
  21240693.656   111620600.762    21240698.797    86977114.138  
 18  1 15 22  9 36.0000000  0 11G 2G29G 7G22G31G23G 6G 3G26G16G 9
  25109795.844   131952836.262                                  
  24837444.828   130521654.907    24837449.293   101705216.479  
  23962218.914   125922307.577    23962222.949    98121297.849  
  23963676.258   125929965.449                                  
  24794525.320   130296111.432    24794529.594   101529456.350  
  20350808.000   106944215.428                                  
  24283822.531   127612350.748    24283830.398    99438225.914  
  22456246.953   118008371.761    22456253.754    91954602.587  
  21677100.094   113913930.598    21677106.945    88764130.564  
  20786869.156   109235737.965                                  
  21240233.078   111618179.098    21240238.180    86975227.127  
 18  1 15 22  9 37.0000000  0 11G 2G29G 7G22G31G23G 6G 3G26G16G 9
  25109760.578   131952652.909                                  
  24837615.250   130522548.364    24837619.648   101705912.679  
  23961610.578   125919108.888    23961614.227    98118805.363  
  23964343.203   125933468.948                                  
  24795165.938   130299474.570    24795169.348   101532076.973  
  20350705.625   106943678.604                                  
  24284133.625   127613985.305    24284140.949    99439499.596  
  22456854.344   118011563.931    22456860.770    91957089.992  
  21677346.445   113915223.879    21677353.023    88765138.312  
  20786655.805   109234615.101                                  
  21239772.250   111615758.267    21239777.625    86973340.771  
 18  1 15 22  9 38.0000000  0 11G 2G29G 7G22G31G23G 6G 3G26G16G 9
  25109726.539   131952470.647                                  
  24837784.398   130523443.020    24837790.191   101706609.818  
  23961001.414   125915910.946    23961005.473    98116313.458  
  23965009.992   125936973.185                                  
  24795806.094   130302838.281    24795809.281   101534698.053  
  20350603.508   106943142.833                                  
  24284444.453   127615620.945    24284452.895    99440774.121  
  22457462.109   118014757.043    22457468.715    91959578.132  
  21677592.734   113916518.401    21677599.551    88766147.031  
  20786441.859   109233493.600                                  
  21239311.773   111613338.396    21239317.059    86971455.152  
 18  1 15 22  9 39.0000000  0 11G 2G29G 7G22G31G23G 6G 3G26G16G 9
  25109691.539   131952289.576                                  
  24837955.797   130524338.891    24837960.371   101707307.903  
  23960393.578   125912713.732    23960397.414    98113822.113  
  23965676.781   125940478.137                                  
  24796446.406   130306202.648    24796449.660   101537319.650  
  20350501.852   106942608.127                                  
  24284755.586   127617257.693    24284763.961    99442049.514  
  22458069.547   118017951.103    22458076.539    91962067.018  
  21677839.055   113917814.113    21677846.051    88767156.678  
  20786228.789   109232373.396                                  
  21238851.414   111610919.448    21238856.871    86969570.257  
 18  1 15 22  9 40.0000000  0 11G 2G29G 7G22G31G23G 6G 3G26G16G 9
  25109657.406   131952109.510                                  
  24838127.016   130525235.940    24838130.691   101708006.910  
  23959785.227   125909517.196    23959789.352    98111331.296  
  23966344.297   125943983.763                                  
  24797086.734   130309567.508    24797090.504   101539941.617  
  20350400.297   106942074.427                                  
  24285067.586   127618895.445    24285075.762    99443325.687  
  22458678.055   118021146.022    22458684.402    91964556.570  
  21678085.781   113919110.993    21678092.102    88768167.233  
  20786015.813   109231254.473                                  
  21238391.641   111608501.345    21238396.852    86967686.025  
 18  1 15 22  9 41.0000000  0 11G 2G29G 7G22G31G23G 6G 3G26G16G 9
  25109623.313   131951930.672                                  
  24838297.641   130526134.204    24838302.027   101708706.853  
  23959176.914   125906321.400    23959180.703    98108841.057  
  23967011.180   125947490.089                                  
  24797726.922   130312932.995    24797730.574   101542564.081  
  20350298.992   106941541.776                                  
  24285380.055   127620534.308    24285387.453    99444602.716  
  22459286.133   118024341.871    22459292.754    91967046.845  
  21678332.852   113920409.094    21678339.715    88769178.741  
  20785803.133   109230136.883                                  
  21237931.297   111606084.172    21237936.566    86965802.509  
 18  1 15 22  9 42.0000000  0 11G 2G29G 7G22G31G23G 6G 3G26G16G 9
  25109589.656   131951752.926                                  
  24838469.500   130527033.644    24838472.813   101709407.711  
  23958568.531   125903126.325    23958572.969    98106351.388  
  23967678.602   125950997.131                                  
  24798367.273   130316299.086    24798371.035   101545187.014  
  20350197.836   106941010.206                                  
  24285692.188   127622174.264    24285699.309    99445880.604  
  22459894.281   118027538.676    22459901.102    91969537.856  
  21678580.422   113921708.417    21678587.313    88770191.203  
  20785590.984   109229020.635                                  
  21237471.516   111603667.953    21237476.563    86963919.744  
 18  1 15 22  9 43.0000000  0 11G 2G29G 7G22G31G23G 6G 3G26G16G 9
  25109555.547   131951576.240                                  
  24838640.344   130527934.274    24838644.363   101710109.492  
  23957960.617   125899931.905    23957965.195    98103862.232  
  23968346.344   125954504.843                                  
  24799007.688   130319665.693    24799011.238   101547810.334  
  20350096.820   106940479.613                                  
  24286004.695   127623815.204    24286011.805    99447159.257  
  22460502.633   118030736.327    22460509.738    91972029.530  
  21678827.703   113923008.896    21678834.453    88771204.561  
  20785378.766   109227905.639                                  
  21237012.078   111601252.561    21237017.297    86962037.620  
 18  1 15 22  9 44.0000000  0 11G 2G29G 7G22G31G23G 6G 3G26G16G 9
  25109521.961   131951400.692                                  
  24838812.516   130528836.038    24838815.930   101710812.159  
  23957353.406   125896738.200    23957357.578    98101373.644  
  23969014.047   125958013.241                                  
  24799648.938   130323032.850    24799652.418   101550434.087  
  20349996.352   106939950.055                                  
  24286316.906   127625457.215    24286323.875    99448438.742  
  22461111.344   118033934.853    22461118.359    91974521.888  
  21679075.422   113924310.544    21679082.109    88772218.834  
  20785167.016   109226791.924                                  
  21236552.430   111598838.077    21236557.777    86960156.203  
 18  1 15 22  9 45.0000000  0 11G 2G29G 7G22G31G23G 6G 3G26G16G 9
  25109489.719   131951226.178                                  
  24838984.789   130529738.984    24838987.891   101711515.751  
  23956745.969   125893545.151    23956750.047    98098885.558  
  23969682.141   125961522.287                                  
  24800289.172   130326400.564    24800293.184   101553058.279  
  20349895.727   106939421.487                                  
  24286629.211   127627100.241    24286636.922    99449719.015  
  22461720.375   118037134.245    22461727.035    91977014.918  
  21679323.406   113925613.361    21679329.926    88773234.016  
  20784954.984   109225679.497                                  
  21236093.352   111596424.436    21236098.285    86958275.443  
 18  1 15 22  9 46.0000000  0 11G 2G29G 7G22G31G23G 6G 3G26G16G 9
  25109456.961   131951052.755                                  
  24839156.250   130530643.118    24839159.656   101712220.273  
  23956137.930   125890352.809    23956142.555    98096398.019  
  23970349.734   125965032.015                                  
  24800929.859   130329768.851    24800934.063   101555682.915  
  20349795.188   106938893.948                                  
  24286942.109   127628744.353    24286949.699    99451000.134  
  22462329.875   118040334.539    22462335.859    91979508.650  
  21679571.430   113926917.350    21679578.129    88774250.113  
  20784744.102   109224568.338                                  
  21235634.180   111594011.696    21235638.980    86956395.385  
 18  1 15 22  9 47.0000000  0 11G 2G29G 7G22G31G23G 6G 3G26G16G 9
  25109423.797   131950880.477                                  
  24839328.469   130531548.396    24839331.828   101712925.687  
  23955530.539   125887161.153    23955534.965    98093911.013  
  23971018.086   125968542.436                                  
  24801571.383   130333137.688    24801575.402   101558307.989  
  20349694.898   106938367.438                                  
  24287255.078   127630389.471    24287262.797    99452282.041  
  22462938.086   118043535.732    22462944.965    91982003.090  
  21679819.742   113928222.521    21679826.711    88775267.129  
  20784532.844   109223458.505                                  
  21235175.078   111591599.851    21235180.113    86954516.024  
 18  1 15 22  9 48.0000000  0 11G 2G29G 7G22G31G23G 6G 3G26G16G 9
  25109391.008   131950709.336                                  
  24839500.438   130532454.900    24839504.457   101713632.061  
  23954923.500   125883970.201    23954927.590    98091424.559  
  23971686.156   125972053.552                                  
  24802213.289   130336507.110    24802216.676   101560933.511  
  20349595.188   106937841.978                                  
  24287568.641   127632035.684    24287576.406    99453564.805  
  22463547.922   118046737.834    22463554.387    91984498.238  
  21680068.344   113929528.914    21680075.070    88776285.097  
  20784321.516   109222349.960                                  
  21234716.102   111589188.906    21234721.457    86952637.372  
 18  1 15 22  9 49.0000000  0 11G 2G29G 7G22G31G23G 6G 3G26G16G 9
  25109358.219   131950539.309                                  
  24839673.492   130533362.579    24839677.387   101714339.341  
  23954316.453   125880780.002    23954320.559    98088938.696  
  23972353.852   125975565.374                                  
  24802853.633   130339877.154    24802858.020   101563559.513  
  20349495.586   106937317.553                                  
  24287882.328   127633682.977    24287889.527    99454848.410  
  22464156.938   118049940.875    22464164.395    91986994.115  
  21680317.359   113930836.501    21680324.180    88777303.995  
  20784111.109   109221242.742                                  
  21234257.883   111586778.886    21234262.664    86950759.437  
 18  1 15 22  9 50.0000000  0 11G 2G29G 7G22G31G23G 6G 3G26G16G 9
  25109325.938   131950370.413                                  
  24839846.367   130534271.501    24839850.098   101715047.602  
  23953709.641   125877590.555    23953713.563    98086453.419  
  23973023.070   125979077.932                                  
  24803495.930   130343247.785    24803499.102   101566185.973  
  20349395.461   106936794.209                                  
  24288196.203   127635331.357    24288203.402    99456132.864  
  22464767.063   118053144.819    22464773.930    91989490.697  
  21680566.492   113932145.345    21680573.273    88778323.871  
  20783900.438   109220136.865                                  
  21233799.211   111584369.812    21233804.543    86948882.237  
 18  1 15 22  9 51.0000000  0 11G 2G29G 7G22G31G23G 6G 3G26G16G 9
  25109294.125   131950202.648                                  
  24840018.813   130535181.642    24840023.566   101715756.798  
  23953102.945   125874401.782    23953106.594    98083968.664  
  23973691.461   125982591.191                                  
  24804136.719   130346619.020    24804141.043   101568812.917  
  20349296.094   106936271.915                                  
  24288509.766   127636980.819    24288516.914    99457418.156  
  22465376.469   118056349.740    22465382.949    91991988.036  
  21680815.547   113933455.360    21680821.852    88779344.663  
  20783690.406   109219032.307                                  
  21233340.977   111581961.639    21233346.102    86947005.738  
 18  1 15 22  9 52.0000000  0 11G 2G29G 7G22G31G23G 6G 3G26G16G 9
  25109262.125   131950036.049                                  
  24840192.563   130536092.938    24840197.234   101716466.892  
  23952496.266   125871213.777    23952500.344    98081484.500  
  23974359.648   125986105.188                                  
  24804778.617   130349990.830    24804782.117   101571440.295  
  20349196.805   106935750.672                                  
  24288824.164   127638631.365    24288831.520    99458704.295  
  22465986.539   118059555.555    22465993.766    91994486.070  
  21681065.438   113934766.613    21681071.527    88780366.424  
  20783480.313   109217929.097                                  
  21232882.953   111579554.397    21232888.004    86945129.971  
 18  1 15 22  9 53.0000000  0 11G 2G29G 7G22G31G23G 6G 3G26G16G 9
  25109230.844   131949870.520                                  
  24840366.219   130537005.452    24840371.113   101717177.948  
  23951889.195   125868026.479    23951893.578    98079000.888  
  23975029.086   125989619.878                                  
  24805420.531   130353363.209    24805424.070   101574068.123  
  20349097.828   106935230.464                                  
  24289137.438   127640282.973    24289145.629    99459991.261  
  22466597.250   118062762.271    22466603.930    91996984.798  
  21681315.188   113936079.071    21681321.766    88781389.115  
  20783270.336   109216827.177                                  
  21232424.625   111577148.064    21232430.063    86943254.909  
 18  1 15 22  9 54.0000000  0 11G 2G29G 7G22G31G23G 6G 3G26G16G 9
  25109198.805   131949706.191                                  
  24840539.992   130537919.206    24840544.469   101717889.968  
  23951283.148   125864839.938    23951287.238    98076517.853  
  23975697.609   125993135.302                                  
  24806062.727   130356736.258    24806066.012   101576696.470  
  20348999.172   106934711.359                                  
  24289452.148   127641935.707    24289460.355    99461279.102  
  22467207.375   118065969.941    22467214.410    91999484.275  
  21681564.898   113937392.752    21681572.027    88782412.768  
  20783060.797   109215726.634                                  
  21231967.141   111574742.663    21231972.324    86941380.571  
 18  1 15 22  9 55.0000000  0 11G 2G29G 7G22G31G23G 6G 3G26G16G 9
  25109168.320   131949543.030                                  
  24840713.750   130538834.175    24840718.695   101718602.935  
  23950676.938   125861654.142    23950681.059    98074035.411  
  23976366.898   125996651.462                                  
  24806704.688   130360109.879    24806708.430   101579325.257  
  20348900.523   106934193.319                                  
  24289767.461   127643589.522    24289774.809    99462567.791  
  22467817.836   118069178.561    22467825.023    92001984.496  
  21681815.094   113938707.690    21681822.027    88783437.397  
  20782851.617   109214627.433                                  
  21231509.953   111572338.217    21231514.758    86939506.972  
 18  1 15 22  9 56.0000000  0 11G 2G29G 7G22G31G23G 6G 3G26G16G 9
  25109137.867   131949380.956                                  
  24840888.898   130539750.360    24840893.180   101719316.852  
  23950070.438   125858469.050    23950074.816    98071553.516  
  23977036.508   126000168.316                                  
  24807347.203   130363484.081    24807350.168   101581954.503  
  20348802.133   106933676.323                                  
  24290082.578   127645244.428    24290089.855    99463857.331  
  22468428.625   118072388.081    22468435.867    92004485.417  
  21682065.500   113940023.829    21682071.871    88784462.964  
  20782642.633   109213529.528                                  
  21231052.313   111569934.679    21231057.086    86937634.087  
 18  1 15 22  9 57.0000000  0 11G 2G29G 7G22G31G23G 6G 3G26G16G 9
  25109107.445   131949220.003                                  
  24841063.289   130540667.750    24841068.047   101720031.696  
  23949464.734   125855284.703    23949468.453    98069072.210  
  23977705.398   126003685.927                                  
  24807988.555   130366858.924    24807992.395   101584584.251  
  20348704.055   106933160.386                                  
  24290397.711   127646900.391    24290404.527    99465147.687  
  22469039.453   118075598.550    22469046.262    92006987.082  
  21682315.852   113941341.161    21682322.918    88785489.456  
  20782434.648   109212432.964                                  
  21230595.391   111567532.063    21230600.457    86935761.917  
 18  1 15 22  9 58.0000000  0 11G 2G29G 7G22G31G23G 6G 3G26G16G 9
  25109076.648   131949060.239                                  
  24841237.453   130541586.377    24841242.852   101720747.511  
  23948858.508   125852101.115    23948863.418    98066591.500  
  23978374.836   126007204.253                                  
  24808631.531   130370234.350    24808634.945   101587214.445  
  20348606.023   106932645.534                                  
  24290712.727   127648557.493    24290720.215    99466438.929  
  22469651.031   118078809.965    22469657.563    92009489.480  
  21682567.211   113942659.743    21682574.207    88786516.923  
  20782226.070   109211337.749                                  
  21230137.766   111565130.403    21230143.289    86933890.499  
 18  1 15 22  9 59.0000000  0 11G 2G29G 7G22G31G23G 6G 3G26G16G 9
  25109046.367   131948901.581                                  
  24841413.195   130542506.198    24841417.758   101721464.257  
  23948252.773   125848918.218    23948256.758    98064111.322  
  23979044.508   126010723.293                                  
  24809273.133   130373610.380    24809277.066   101589845.125  
  20348508.148   106932131.733                                  
  24291028.477   127650215.689    24291035.691    99467731.031  
  22470262.266   118082022.281    22470268.949    92011992.584  
  21682818.078   113943979.533    21682824.852    88787545.330  
  20782017.859   109210243.845                                  
  21229681.164   111562729.673    21229686.207    86932019.805  
 18  1 15 22 10  0.0000000  0 11G 2G29G 7G22G31G23G 6G 3G26G16G 9
  25109016.555   131948744.048                                  
  24841588.586   130543427.200    24841593.578   101722181.923  
  23947647.789   125845736.050    23947652.098    98061631.715  
  23979713.773   126014243.034                                  
  24809916.508   130376986.967    24809920.289   101592476.230  
  20348410.914   106931618.984                                  
  24291343.563   127651874.900    24291351.414    99469023.920  
  22470874.070   118085235.515    22470880.176    92014496.397  
  21683069.391   113945300.524    21683076.137    88788574.676  
  20781810.039   109209151.260                                  
  21229224.625   111560329.809    21229229.699    86930149.780  
 18  1 15 22 10  1.0000000  0 11G 2G29G 7G22G31G23G 6G 3G26G16G 9
  25108987.078   131948587.746                                  
  24841764.195   130544349.450    24841768.520   101722900.562  
  23947042.180   125842554.653    23947046.816    98059152.712  
  23980384.055   126017763.503                                  
  24810559.180   130380364.184    24810562.605   101595107.831  
  20348313.578   106931107.308                                  
  24291659.625   127653535.230    24291667.297    99470317.690  
  22471485.445   118088449.691    22471491.926    92017000.951  
  21683321.203   113946622.757    21683327.949    88789604.981  
  20781602.250   109208060.030                                  
  21228767.938   111557930.933    21228773.152    86928280.523  
 18  1 15 22 10  2.0000000  0 11G 2G29G 7G22G31G23G 6G 3G26G16G 9
  25108957.602   131948432.501                                  
  24841939.992   130545272.907    24841944.594   101723620.139  
  23946437.281   125839373.990    23946441.461    98056674.281  
  23981054.477   126021284.718                                  
  24811201.500   130383742.026    24811205.598   101597739.914  
  20348216.258   106930596.704                                  
  24291976.055   127655196.678    24291984.074    99471612.323  
  22472097.438   118091664.822    22472103.789    92019506.253  
  21683572.984   113947946.206    21683579.703    88790636.241  
  20781394.758   109206970.135                                  
  21228311.547   111555532.976    21228316.594    86926411.990  
 18  1 15 22 10  3.0000000  0 11G 2G29G 7G22G31G23G 6G 3G26G16G 9
  25108927.336   131948278.388                                  
  24842116.156   130546197.562    24842120.289   101724340.647  
  23945831.531   125836194.024    23945836.105    98054196.383  
  23981724.422   126024806.605                                  
  24811843.992   130387120.436    24811848.781   101600372.438  
  20348119.250   106930087.136                                  
  24292292.336   127656859.174    24292300.113    99472907.775  
  22472709.602   118094880.852    22472716.055    92022012.252  
  21683825.203   113949270.869    21683832.148    88791668.448  
  20781187.750   109205881.521                                  
  21227855.508   111553135.905    21227860.715    86924544.135  
 18  1 15 22 10  4.0000000  0 11G 2G29G 7G22G31G23G 6G 3G26G16G 9
  25108898.156   131948125.432                                  
  24842291.914   130547123.440    24842296.590   101725062.110  
  23945226.641   125833014.800    23945231.648    98051719.067  
  23982394.711   126028329.222                                  
  24812487.250   130390499.445    24812491.164   101603005.435  
  20348022.344   106929578.604                                  
  24292608.414   127658522.775    24292616.453    99474204.082  
  22473322.016   118098097.782    22473328.281    92024518.962  
  21684077.422   113950596.739    21684084.508    88792701.594  
  20780981.055   109204794.264                                  
  21227399.516   111550739.786    21227404.703    86922677.030  
 18  1 15 22 10  5.0000000  0 11G 2G29G 7G22G31G23G 6G 3G26G16G 9
  25108869.539   131947973.671                                  
  24842467.836   130548050.556    24842472.660   101725784.541  
  23944622.234   125829836.335    23944626.473    98049242.351  
  23983065.961   126031852.593                                  
  24813130.375   130393879.079    24813134.219   101605638.923  
  20347925.844   106929071.203                                  
  24292924.531   127660187.515    24292933.164    99475501.274  
  22473933.945   118101315.694    22473940.793    92027026.427  
  21684329.945   113951923.875    21684336.711    88793735.723  
  20780773.945   109203708.376                                  
  21226943.875   111548344.637    21226949.176    86920810.680  
 18  1 15 22 10  6.0000000  0 11G 2G29G 7G22G31G23G 6G 3G26G16G 9
  25108840.875   131947823.060                                  
  24842644.352   130548978.968    24842649.422   101726507.979  
  23944018.000   125826658.686    23944021.418    98046766.268  
  23983736.055   126035376.755                                  
  24813773.391   130397259.405    24813778.309   101608272.944  
  20347829.313   106928564.936                                  
  24293241.695   127661853.330    24293250.578    99476799.307  
  22474546.703   118104534.601    22474553.070    92029534.668  
  21684582.633   113953252.278    21684589.621    88794770.842  
  20780567.953   109202623.875                                  
  21226488.156   111545950.471    21226493.004    86918945.103  
 18  1 15 22 10  7.0000000  0 11G 2G29G 7G22G31G23G 6G 3G26G16G 9
  25108812.859   131947673.575                                  
  24842822.273   130549908.493    24842826.285   101727232.280  
  23943413.063   125823481.693    23943416.652    98044290.688  
  23984406.750   126038901.552                                  
  24814417.023   130400640.261    24814420.762   101610907.379  
  20347733.195   106928059.645                                  
  24293559.328   127663520.203    24293567.648    99478098.171  
  22475159.008   118107754.388    22475165.859    92032043.589  
  21684835.688   113954581.836    21684842.359    88795806.862  
  20780362.219   109201540.662                                  
  21226032.906   111543557.141    21226038.023    86917080.176  
 18  1 15 22 10  8.0000000  0 11G 2G29G 7G22G31G23G 6G 3G26G16G 9
  25108784.672   131947525.108                                  
  24842999.188   130550839.236    24843003.512   101727957.532  
  23942808.383   125820305.422    23942812.133    98041815.662  
  23985077.930   126042427.020                                  
  24815059.844   130404021.635    24815063.992   101613542.213  
  20347637.523   106927555.381                                  
  24293876.719   127665188.169    24293885.020    99479397.896  
  22475771.883   118110975.061    22475778.492    92034553.196  
  21685089.148   113955912.593    21685096.012    88796843.815  
  20780155.617   109200458.754                                  
  21225577.648   111541164.741    21225582.707    86915215.964  
 18  1 15 22 10  9.0000000  0 11G 2G29G 7G22G31G23G 6G 3G26G16G 9
  25108756.305   131947377.942                                  
  24843176.352   130551771.210    24843180.926   101728683.743  
  23942204.023   125817129.896    23942207.840    98039341.222  
  23985748.359   126045953.264                                  
  24815704.117   130407403.720    24815707.941   101616177.605  
  20347541.836   106927052.221                                  
  24294194.664   127666857.218    24294202.684    99480698.455  
  22476384.961   118114196.684    22476391.582    92037063.552  
  21685342.797   113957244.608    21685349.121    88797881.750  
  20779950.047   109199378.202                                  
  21225122.531   111538773.287    21225127.621    86913352.496  
 18  1 15 22 10 10.0000000  0 11G 2G29G 7G22G31G23G 6G 3G26G16G 9
  25108728.672   131947231.794                                  
  24843353.352   130552704.315    24843358.641   101729410.831  
  23941599.883   125813955.053    23941603.859    98036867.307  
  23986419.484   126049480.169                                  
  24816347.469   130410786.294    24816351.574   101618813.378  
  20347446.258   106926550.073                                  
  24294512.047   127668527.280    24294520.414    99481999.815  
  22476997.992   118117419.173    22477004.715    92039574.585  
  21685596.188   113958577.752    21685602.762    88798920.565  
  20779744.734   109198298.931                                  
  21224667.727   111536382.699    21224672.535    86911489.699  
 18  1 15 22 10 11.0000000  0 11G 2G29G 7G22G31G23G 6G 3G26G16G 9
  25108701.367   131947086.743                                  
  24843531.445   130553638.618    24843536.344   101730138.855  
  23940995.664   125810780.913    23940999.785    98034393.950  
  23987090.703   126053007.793                                  
  24816991.000   130414169.484    24816995.121   101621449.628  
  20347350.641   106926048.946                                  
  24294829.797   127670198.421    24294838.324    99483302.004  
  22477611.383   118120642.583    22477618.324    92042086.334  
  21685850.031   113959912.099    21685856.859    88799960.312  
  20779539.352   109197220.956                                  
  21224212.820   111533993.025    21224217.973    86909627.617  
 18  1 15 22 10 12.0000000  0 11G 2G29G 7G22G31G23G 6G 3G26G16G 9
  25108674.344   131946942.947                                  
  24843708.258   130554574.213    24843714.563   101730867.890  
  23940392.180   125807607.626    23940396.086    98031921.261  
  23987762.016   126056536.185                                  
  24817635.547   130417553.324    24817639.406   101624086.379  
  20347255.922   106925548.975                                  
  24295148.844   127671870.702    24295156.242    99484605.073  
  22478224.703   118123866.979    22478231.887    92044598.850  
  21686104.367   113961247.774    21686111.203    88801001.101  
  20779334.195   109196144.412                                  
  21223758.219   111531604.380    21223763.543    86907766.333  
 18  1 15 22 10 13.0000000  0 11G 2G29G 7G22G31G23G 6G 3G26G16G 9
  25108646.273   131946800.362                                  
  24843887.445   130555511.096    24843892.598   101731597.920  
  23939788.445   125804435.106    23939792.211    98029449.171  
  23988433.695   126060065.373                                  
  24818279.477   130420937.848    24818282.996   101626723.662  
  20347160.914   106925050.143                                  
  24295467.180   127673544.207    24295474.719    99485909.104  
  22478838.984   118127092.417    22478845.359    92047112.178  
  21686358.516   113962584.736    21686365.422    88802042.889  
  20779130.234   109195069.276                                  
  21223304.023   111529216.720    21223309.109    86905905.823  
 18  1 15 22 10 14.0000000  0 11G 2G29G 7G22G31G23G 6G 3G26G16G 9
  25108619.313   131946658.878                                  
  24844065.969   130556449.190    24844071.055   101732328.915  
  23939184.797   125801263.311    23939188.852    98026977.640  
  23989105.719   126063595.280                                  
  24818923.703   130424322.970    24818927.598   101629361.416  
  20347065.867   106924552.339                                  
  24295785.398   127675218.775    24295793.594    99487213.956  
  22479452.539   118130318.729    22479459.441    92049626.185  
  21686613.664   113963922.878    21686620.234    88803085.594  
  20778925.547   109193995.444                                  
  21222850.016   111526829.951    21222854.855    86904046.006  
 18  1 15 22 10 15.0000000  0 11G 2G29G 7G22G31G23G 6G 3G26G16G 9
  25108592.875   131946518.552                                  
  24844245.195   130557388.469    24844249.953   101733060.828  
  23938581.531   125798092.273    23938585.758    98024506.701  
  23989777.617   126067125.848                                  
  24819568.102   130427708.676    24819571.883   101631999.641  
  20346971.383   106924055.602                                  
  24296104.188   127676894.373    24296111.910    99488519.618  
  22480066.688   118133545.991    22480073.363    92052140.928  
  21686868.141   113965262.247    21686874.824    88804129.265  
  20778721.883   109192922.938                                  
  21222395.820   111524444.146    21222400.820    86902186.935  
 18  1 15 22 10 16.0000000  0 11G 2G29G 7G22G31G23G 6G 3G26G16G 9
  25108566.117   131946379.396                                  
  24844423.820   130558329.022    24844428.852   101733793.732  
  23937977.773   125794921.993    23937982.090    98022036.348  
  23990449.758   126070657.215                                  
  24820211.602   130431095.039    24820216.172   101634638.376  
  20346877.086   106923559.973                                  
  24296423.484   127678571.127    24296431.301    99489826.176  
  22480680.867   118136774.223    22480687.656    92054656.432  
  21687123.086   113966602.892    21687130.195    88805173.921  
  20778517.680   109191851.811                                  
  21221942.125   111522059.294    21221947.176    86900328.608  
 18  1 15 22 10 17.0000000  0 11G 2G29G 7G22G31G23G 6G 3G26G16G 9
  25108540.297   131946241.376                                  
  24844603.328   130559270.751    24844607.953   101734527.543  
  23937374.891   125791752.417    23937379.137    98019566.545  
  23991121.922   126074189.279                                  
  24820856.445   130434481.915    24820860.855   101637277.494  
  20346782.891   106923065.388                                  
  24296742.547   127680248.934    24296751.109    99491133.549  
  22481295.250   118140003.330    22481302.691    92057172.621  
  21687378.664   113967944.697    21687385.438    88806219.485  
  20778314.367   109190781.994                                  
  21221488.461   111519675.343    21221493.605    86898470.989  
 18  1 15 22 10 18.0000000  0 11G 2G29G 7G22G31G23G 6G 3G26G16G 9
  25108513.766   131946104.472                                  
  24844782.961   130560213.706    24844787.102   101735262.314  
  23936771.484   125788583.612    23936776.594    98017097.343  
  23991794.039   126077722.078                                  
  24821500.313   130437869.476    24821505.785   101639917.144  
  20346688.898   106922571.868                                  
  24297061.977   127681927.894    24297070.801    99492441.820  
  22481909.781   118143233.401    22481916.758    92059689.556  
  21687634.156   113969287.757    21687641.180    88807266.027  
  20778110.859   109189713.527                                  
  21221034.625   111517292.338    21221039.734    86896614.101  
 18  1 15 22 10 19.0000000  0 11G 2G29G 7G22G31G23G 6G 3G26G16G 9
  25108488.578   131945968.727                                  
  24844962.266   130561157.858    24844966.656   101735998.021  
  23936168.789   125785415.533    23936173.816    98014628.714  
  23992466.594   126081255.554                                  
  24822146.422   130441257.605    24822149.793   101642557.243  
  20346595.555   106922079.429                                  
  24297381.938   127683607.890    24297390.695    99493750.901  
  22482524.891   118146464.387    22482531.867    92062207.203  
  21687890.188   113970632.029    21687896.828    88808313.508  
  20777907.914   109188646.371                                  
  21220581.703   111514910.271    21220586.824    86894757.949  
 18  1 15 22 10 20.0000000  0 11G 2G29G 7G22G31G23G 6G 3G26G16G 9
  25108463.039   131945834.117                                  
  24845142.641   130562103.277    24845147.105   101736734.701  
  23935565.992   125782248.185    23935570.973    98012160.662  
  23993139.203   126084789.813                                  
  24822791.281   130444646.385    24822794.820   101645197.852  
  20346501.516   106921588.055                                  
  24297702.289   127685289.009    24297710.117    99495060.859  
  22483140.305   118149696.331    22483146.406    92064725.598  
  21688146.055   113971977.531    21688152.820    88809361.955  
  20777705.250   109187580.585                                  
  21220128.305   111512529.138    21220133.289    86892902.521  
 18  1 15 22 10 21.0000000  0 11G 2G29G 7G22G31G23G 6G 3G26G16G 9
  25108437.570   131945700.708                                  
  24845321.930   130563049.919    24845327.473   101737472.348  
  23934963.664   125779081.581    23934967.973    98009693.181  
  23993812.406   126088324.790                                  
  24823436.039   130448035.725    24823439.816   101647838.889  
  20346408.773   106921097.770                                  
  24298021.875   127686971.203    24298030.387    99496371.658  
  22483755.781   118152929.229    22483761.609    92067244.739  
  21688402.406   113973324.300    21688409.270    88810411.381  
  20777502.266   109186516.141                                  
  21219675.359   111510148.964    21219680.750    86891047.838  
 18  1 15 22 10 22.0000000  0 11G 2G29G 7G22G31G23G 6G 3G26G16G 9
  25108412.617   131945568.412                                  
  24845502.938   130563997.787    24845507.844   101738210.956  
  23934361.180   125775915.771    23934365.238    98007226.317  
  23994485.055   126091860.520                                  
  24824081.414   130451425.711    24824085.047   101650480.441  
  20346315.438   106920608.571                                  
  24298342.219   127688654.518    24298350.699    99497683.342  
  22484371.148   118156163.057    22484376.957    92069764.604  
  21688658.570   113974672.289    21688665.461    88811461.765  
  20777300.195   109185453.053                                  
  21219222.328   111507769.745    21219227.891    86889193.907  
 18  1 15 22 10 23.0000000  0 11G 2G29G 7G22G31G23G 6G 3G26G16G 9
  25108386.961   131945437.327                                  
  24845684.000   130564946.903    24845688.832   101738950.530  
  23933758.766   125772750.717    23933763.039    98004760.043  
  23995158.180   126095396.977                                  
  24824726.727   130454816.337    24824730.734   101653122.492  
  20346222.617   106920120.468                                  
  24298662.219   127690338.970    24298671.207    99498995.906  
  22484986.531   118159397.840    22484992.551    92072285.213  
  21688915.711   113976021.533    21688922.359    88812513.127  
  20777098.219   109184391.343                                  
  21218769.906   111505391.479    21218775.363    86887340.713  
 18  1 15 22 10 24.0000000  0 11G 2G29G 7G22G31G23G 6G 3G26G16G 9
  25108362.344   131945307.421                                  
  24845864.227   130565897.255    24845869.117   101739691.064  
  23933156.328   125769586.424    23933160.668    98002294.360  
  23995831.414   126098934.189                                  
  24825371.727   130458207.581    24825375.094   101655765.021  
  20346129.805   106919633.453                                  
  24298983.680   127692024.536    24298991.926    99500309.341  
  22485602.859   118162633.599    22485608.797    92074806.589  
  21689172.570   113977372.033    21689179.270    88813565.465  
  20776896.547   109183330.996                                  
  21218317.789   111503014.173    21218322.488    86885488.266  
 18  1 15 22 10 25.0000000  0 11G 2G29G 7G22G31G23G 6G 3G26G16G 9
  25108337.852   131945178.646                                  
  24846044.883   130566848.833    24846050.344   101740432.552  
  23932554.617   125766422.912    23932559.070    97999829.286  
  23996504.039   126102472.146                                  
  24826017.219   130461599.448    24826020.195   101658408.035  
  20346037.461   106919147.525                                  
  24299305.039   127693711.181    24299312.188    99501623.605  
  22486218.055   118165870.293    22486224.902    92077328.686  
  21689429.922   113978723.749    21689436.730    88814618.749  
  20776694.969   109182271.983                                  
  21217865.711   111500637.800    21217870.418    86883636.548  
 18  1 15 22 10 26.0000000  0 11G 2G29G 7G22G31G23G 6G 3G26G16G 9
  25108313.859   131945051.036                                  
  24846226.719   130567801.663    24846231.352   101741175.020  
  23931953.477   125763260.138    23931957.352    97997364.784  
  23997176.961   126106010.857                                  
  24826662.539   130464991.966    24826666.258   101661051.549  
  20345945.250   106918662.700                                  
  24299625.430   127695398.953    24299633.328    99502938.749  
  22486834.266   118169107.984    22486840.668    92079851.562  
  21689687.234   113980076.725    21689694.133    88815673.018  
  20776493.531   109181214.364                                  
  21217413.414   111498262.424    21217418.656    86881785.611  
 18  1 15 22 10 27.0000000  0 11G 2G29G 7G22G31G23G 6G 3G26G16G 9
  25108289.734   131944924.649                                  
  24846407.742   130568755.774    24846413.582   101741918.486  
  23931351.250   125760098.165    23931355.461    97994900.905  
  23997850.633   126109550.357                                  
  24827307.688   130468385.117    24827311.348   101663695.564  
  20345853.016   106918178.971                                  
  24299946.617   127697087.877    24299954.926    99504254.786  
  22487450.375   118172346.604    22487456.797    92082375.164  
  21689945.039   113981430.980    21689951.938    88816728.274  
  20776292.625   109180158.115                                  
  21216961.742   111495888.003    21216967.238    86879935.406  
 18  1 15 22 10 28.0000000  0 11G 2G29G 7G22G31G23G 6G 3G26G16G 9
  25108266.305   131944799.393                                  
  24846589.305   130569711.081    24846594.711   101742662.879  
  23930749.570   125756936.941    23930753.617    97992437.607  
  23998524.359   126113090.599                                  
  24827954.016   130471778.901    24827957.250   101666340.071  
  20345761.305   106917696.329                                  
  24300268.180   127698777.897    24300276.895    99505571.680  
  22488067.031   118175586.175    22488073.836    92084899.499  
  21690202.891   113982786.474    21690209.645    88817784.509  
  20776091.781   109179103.223                                  
  21216509.750   111493514.528    21216515.254    86878085.947  
 18  1 15 22 10 29.0000000  0 11G 2G29G 7G22G31G23G 6G 3G26G16G 9
  25108242.930   131944675.276                                  
  24846772.125   130570667.611    24846777.031   101743408.224  
  23930147.922   125753776.443    23930152.273    97989974.875  
  23999198.234   126116631.491                                  
  24828599.398   130475173.253    24828603.578   101668985.028  
  20345669.648   106917214.730                                  
  24300589.969   127700468.957    24300598.242    99506889.391  
  22488683.969   118178826.657    22488690.137    92087424.547  
  21690460.797   113984143.165    21690467.855    88818841.668  
  20775891.625   109178049.634                                  
  21216058.125   111491141.983    21216063.691    86876237.216  
 18  1 15 22 10 30.0000000  0 11G 2G29G 7G22G31G23G 6G 3G26G16G 9
  25108219.375   131944552.333                                  
  24846953.586   130571625.403    24846959.012   101744154.559  
  23929546.813   125750616.739    23929550.977    97987512.770  
  23999872.125   126120173.220                                  
  24829245.500   130478568.249    24829249.422   101671630.482  
  20345578.313   106916734.265                                  
  24300911.984   127702161.192    24300920.609    99508208.014  
  22489300.164   118182068.128    22489307.168    92089950.369  
  21690719.508   113985501.117    21690726.414    88819899.816  
  20775691.297   109176997.461                                  
  21215607.117   111488770.424    21215612.043    86874389.246  
 18  1 15 22 10 31.0000000  0 11G 2G29G 7G22G31G23G 6G 3G26G16G 9
  25108196.227   131944430.585                                  
  24847136.492   130572584.452    24847141.410   101744901.867  
  23928945.398   125747457.810    23928949.945    97985051.271  
  24000546.227   126123715.682                                  
  24829891.977   130481963.927    24829895.316   101674276.460  
  20345487.117   106916254.887                                  
  24301234.133   127703854.542    24301243.262    99509527.506  
  22489917.109   118185310.577    22489923.977    92092476.957  
  21690977.914   113986860.315    21690984.773    88820958.929  
  20775491.188   109175946.629                                  
  21215156.031   111486399.824    21215160.941    86872542.028  
 18  1 15 22 10 32.0000000  0 11G 2G29G 7G22G31G23G 6G 3G26G16G 9
  25108173.508   131944309.947                                  
  24847319.758   130573544.665    24847324.090   101745650.087  
  23928344.445   125744299.570    23928348.770    97982590.301  
  24001220.289   126127258.814                                  
  24830538.047   130485360.143    24830541.344   101676922.864  
  20345395.930   106915776.573                                  
  24301556.680   127705548.962    24301565.605    99510847.829  
  22490534.336   118188553.908    22490541.480    92095004.226  
  21691237.023   113988220.747    21691243.453    88822019.007  
  20775291.469   109174897.130                                  
  21214705.023   111484030.148    21214710.320    86870695.532  
 18  1 15 22 10 33.0000000  0 11G 2G29G 7G22G31G23G 6G 3G26G16G 9
  25108150.656   131944190.479                                  
  24847501.859   130574506.160    24847507.230   101746399.308  
  23927744.133   125741142.127    23927747.867    97980129.961  
  24001894.813   126130802.724                                  
  24831185.125   130488756.986    24831187.445   101679569.761  
  20345305.117   106915299.333                                  
  24301880.398   127707244.468    24301888.793    99512169.003  
  22491152.234   118191798.215    22491158.730    92097532.261  
  21691496.203   113989582.401    21691503.039    88823080.037  
  20775091.953   109173848.995                                  
  21214254.375   111481661.412    21214259.137    86868849.761  
 18  1 15 22 10 34.0000000  0 11G 2G29G 7G22G31G23G 6G 3G26G16G 9
  25108127.773   131944072.150                                  
  24847686.070   130575468.838    24847690.246   101747149.443  
  23927143.422   125737985.392    23927147.309    97977670.168  
  24002569.414   126134347.333                                  
  24831831.031   130492154.449    24831833.598   101682217.130  
  20345214.789   106914823.174                                  
  24302202.734   127708941.110    24302210.754    99513491.065  
  22491769.383   118195043.426    22491775.984    92100060.997  
  21691755.586   113990945.263    21691762.074    88824142.009  
  20774892.781   109172802.187                                  
  21213804.047   111479293.622    21213809.148    86867004.727  
 18  1 15 22 10 35.0000000  0 11G 2G29G 7G22G31G23G 6G 3G26G16G 9
  25108105.273   131943954.846                                  
  24847869.219   130576432.628    24847874.078   101747900.455  
  23926542.555   125734829.294    23926547.188    97975210.868  
  24003244.523   126137892.551                                  
  24832477.797   130495552.426    24832480.094   101684864.897  
  20345124.141   106914347.975                                  
  24302525.555   127710638.722    24302534.031    99514813.880  
  22492386.781   118198289.496    22492393.863    92102590.398  
  21692015.008   113992309.279    21692021.941    88825204.874  
  20774694.070   109171756.622                                  
  21213353.297   111476926.665    21213358.238    86865160.347  
 18  1 15 22 10 36.0000000  0 11G 2G29G 7G22G31G23G 6G 3G26G16G 9
  25108083.719   131943838.697                                  
  24848052.641   130577397.676    24848057.410   101748652.437  
  23925942.156   125731673.944    23925946.738    97972752.155  
  24003919.352   126141438.514                                  
  24833124.344   130498950.969    24833126.719   101687513.123  
  20345033.945   106913873.842                                  
  24302848.906   127712337.406    24302856.727    99516137.532  
  22493004.570   118201536.473    22493011.980    92105120.511  
  21692274.805   113993674.495    21692281.168    88826268.679  
  20774495.008   109170712.384                                  
  21212903.164   111474560.618    21212908.445    86863316.668  
 18  1 15 22 10 37.0000000  0 11G 2G29G 7G22G31G23G 6G 3G26G16G 9
  25108061.594   131943723.586                                  
  24848236.898   130578363.743    24848241.027   101749405.217  
  23925342.242   125728519.191    23925346.367    97970293.909  
  24004594.086   126144985.066                                  
  24833771.109   130502350.028    24833773.789   101690161.743  
  20344943.727   106913400.669                                  
  24303172.547   127714037.035    24303180.789    99517461.913  
  22493622.961   118204784.271    22493629.797    92107651.261  
  21692534.633   113995040.814    21692541.586    88827333.347  
  20774296.805   109169669.382                                  
  21212453.117   111472195.405    21212458.066    86861473.652  
 18  1 15 22 10 38.0000000  0 11G 2G29G 7G22G31G23G 6G 3G26G16G 9
  25108040.297   131943609.576                                  
  24848421.602   130579331.072    24848424.953   101750158.975  
  23924741.398   125725365.161    23924746.059    97967836.222  
  24005268.664   126148532.297                                  
  24834418.008   130505749.612    24834420.875   101692810.764  
  20344854.172   106912928.533                                  
  24303495.914   127715737.767    24303504.355    99518787.160  
  22494241.367   118208032.978    22494248.141    92110182.714  
  21692794.938   113996408.327    21692801.629    88828398.939  
  20774098.328   109168627.685                                  
  21212003.156   111469831.088    21212008.363    86859631.330  
 18  1 15 22 10 39.0000000  0 11G 2G29G 7G22G31G23G 6G 3G26G16G 9
  25108018.539   131943496.610                                  
  24848605.375   130580299.491    24848608.965   101750913.588  
  23924142.203   125722211.789    23924145.828    97965379.044  
  24005943.617   126152080.163                                  
  24835065.750   130509149.740    24835068.031   101695460.215  
  20344764.680   106912457.357                                  
  24303819.797   127717439.485    24303827.938    99520113.179  
  22494860.172   118211282.492    22494866.391    92112714.800  
  21693055.672   113997776.977    21693062.395    88829465.419  
  20773900.461   109167587.224                                  
  21211553.125   111467467.626    21211558.648    86857789.671  
 18  1 15 22 10 40.0000000  0 11G 2G29G 7G22G31G23G 6G 3G26G16G 9
  25107996.594   131943384.709                                  
  24848790.445   130581269.035    24848793.844   101751669.085  
  23923541.930   125719059.040    23923545.844    97962922.354  
  24006619.633   126155628.656                                  
  24835711.938   130512550.396    24835714.992   101698110.077  
  20344674.773   106911987.165                                  
  24304144.148   127719142.171    24304152.168    99521439.942  
  22495478.344   118214532.858    22495485.285    92115247.544  
  21693316.242   113999146.730    21693323.199    88830532.762  
  20773703.258   109166547.992                                  
  21211104.063   111465104.977    21211108.797    86855948.645  
 18  1 15 22 10 41.0000000  0 11G 2G29G 7G22G31G23G 6G 3G26G16G 9
  25107976.445   131943273.869                                  
  24848975.219   130582239.699    24848978.449   101752425.448  
  23922942.172   125715906.962    23922946.258    97960466.190  
  24007295.016   126159177.771                                  
  24836359.469   130515951.532    24836362.699   101700760.312  
  20344585.625   106911517.935                                  
  24304468.039   127720845.870    24304476.512    99522767.504  
  22496096.898   118217784.069    22496104.020    92117780.951  
  21693577.125   114000517.625    21693583.500    88831600.992  
  20773505.156   109165510.042                                  
  21210654.336   111462743.191    21210659.438    86854108.296  
 18  1 15 22 10 42.0000000  0 11G 2G29G 7G22G31G23G 6G 3G26G16G 9
  25107955.242   131943164.064                                  
  24849159.898   130583211.517    24849163.242   101753182.709  
  23922342.461   125712755.528    23922346.707    97958010.530  
  24007970.211   126162727.509                                  
  24837006.859   130519353.199    24837009.922   101703410.958  
  20344496.867   106911049.718                                  
  24304792.188   127722550.567    24304801.023    99524095.840  
  22496715.789   118221036.107    22496722.371    92120315.009  
  21693838.000   114001889.674    21693844.609    88832670.123  
  20773307.742   109164473.321                                  
  21210204.922   111460382.256    21210210.422    86852268.604  
 18  1 15 22 10 43.0000000  0 11G 2G29G 7G22G31G23G 6G 3G26G16G 9
  25107934.016   131943055.305                                  
  24849344.266   130584184.448    24849348.820   101753940.833  
  23921742.547   125709604.712    23921747.176    97955555.349  
  24008645.953   126166277.894                                  
  24837654.445   130522755.378    24837658.016   101706062.007  
  20344407.438   106910582.438                                  
  24305116.211   127724256.282    24305125.707    99525424.965  
  22497334.516   118224288.978    22497341.297    92122849.713  
  21694099.086   114003262.825    21694105.926    88833740.111  
  20773110.531   109163437.845                                  
  21209756.438   111458022.154    21209761.258    86850429.560  
 18  1 15 22 10 44.0000000  0 11G 2G29G 7G22G31G23G 6G 3G26G16G 9
  25107913.484   131942947.639                                  
  24849529.523   130585158.510    24849533.977   101754699.839  
  23921143.563   125706454.604    23921148.156    97953100.717  
  24009321.695   126169828.913                                  
  24838301.578   130526158.084    24838305.316   101708713.463  
  20344318.617   106910116.173                                  
  24305441.352   127725962.987    24305449.824    99526754.862  
  22497953.477   118227542.737    22497960.840    92125385.115  
  21694360.867   114004637.131    21694367.781    88834810.994  
  20772913.453   109162403.643                                  
  21209307.234   111455662.939    21209312.484    86848591.215  
 18  1 15 22 10 45.0000000  0 11G 2G29G 7G22G31G23G 6G 3G26G16G 9
  25107893.195   131942841.079                                  
  24849714.766   130586133.733    24849719.230   101755459.746  
  23920543.844   125703305.186    23920548.395    97950646.620  
  24009997.875   126173380.621                                  
  24838949.234   130529561.318    24838953.262   101711365.329  
  20344230.008   106909650.936                                  
  24305766.766   127727670.747    24305774.625    99528085.578  
  22498572.875   118230797.370    22498579.645    92127921.192  
  21694622.508   114006012.614    21694629.457    88835882.800  
  20772717.664   109161370.715                                  
  21208858.383   111453304.588    21208863.422    86846753.534  
 18  1 15 22 10 46.0000000  0 11G 2G29G 7G22G31G23G 6G 3G26G16G 9
  25107872.961   131942735.548                                  
  24849900.500   130587110.088    24849905.398   101756220.546  
  23919944.492   125700156.394    23919948.977    97948193.019  
  24010673.500   126176932.925                                  
  24839596.406   130532965.092    24839600.430   101714017.620  
  20344141.789   106909186.675                                  
  24306092.039   127729379.497    24306100.430    99529417.072  
  22499192.586   118234052.831    22499199.383    92130457.913  
  21694884.711   114007389.237    21694891.355    88836955.493  
  20772521.234   109160339.045                                  
  21208409.563   111450947.096    21208414.555    86844916.531  
 18  1 15 22 10 47.0000000  0 11G 2G29G 7G22G31G23G 6G 3G26G16G 9
  25107853.141   131942631.052                                  
  24850086.016   130588087.557    24850091.863   101756982.209  
  23919345.531   125697008.245    23919349.637    97945739.921  
  24011349.742   126180485.854                                  
  24840245.031   130536369.342    24840248.539   101716670.278  
  20344053.594   106908723.353                                  
  24306416.125   127731089.231    24306425.777    99530749.329  
  22499812.305   118237309.088    22499819.195    92132995.251  
  21695146.523   114008766.941    21695153.258    88838029.028  
  20772324.813   109159308.598                                  
  21207961.359   111448590.406    21207966.316    86843080.146  
 18  1 15 22 10 48.0000000  0 11G 2G29G 7G22G31G23G 6G 3G26G16G 9
  25107833.773   131942527.617                                  
  24850272.484   130589066.144    24850277.715   101757744.750  
  23918747.133   125693860.756    23918751.086    97943287.336  
  24012025.594   126184039.418                                  
  24840893.172   130539774.115    24840896.949   101719323.349  
  20343965.883   106908261.028                                  
  24306741.969   127732799.989    24306750.953    99532082.387  
  22500431.789   118240566.229    22500439.016    92135533.280  
  21695409.031   114010145.814    21695415.926    88839103.479  
  20772129.266   109158279.417                                  
  21207512.953   111446234.590    21207517.695    86841244.448  
 18  1 15 22 10 49.0000000  0 11G 2G29G 7G22G31G23G 6G 3G26G16G 9
  25107814.492   131942425.266                                  
  24850459.328   130590045.914    24850464.129   101758508.213  
  23918148.109   125690713.930    23918152.180    97940835.263  
  24012701.609   126187593.644                                  
  24841541.875   130543179.451    24841544.582   101721976.861  
  20343878.258   106907799.717                                  
  24307068.648   127734511.734    24307076.648    99533416.213  
  22501052.023   118243824.211    22501059.184    92138071.968  
  21695671.641   114011525.834    21695678.605    88840178.816  
  20771933.492   109157251.503                                  
  21207064.680   111443879.621    21207069.730    86839409.411  
 18  1 15 22 10 50.0000000  0 11G 2G29G 7G22G31G23G 6G 3G26G16G 9
  25107795.883   131942324.071                                  
  24850645.094   130591026.851    24850651.148   101759272.581  
  23917549.219   125687567.827    23917553.383    97938383.759  
  24013378.523   126191148.556                                  
  24842189.875   130546585.357    24842192.852   101724630.823  
  20343790.211   106907339.442                                  
  24307393.656   127736224.556    24307402.574    99534750.873  
  22501672.703   118247083.118    22501679.305    92140611.373  
  21695934.844   114012907.040    21695941.453    88841255.078  
  20771738.273   109156224.923                                  
  21206616.977   111441525.600    21206622.398    86837575.106  
 18  1 15 22 10 51.0000000  0 11G 2G29G 7G22G31G23G 6G 3G26G16G 9
  25107776.063   131942223.896                                  
  24850831.609   130592008.872    24850837.648   101760037.799  
  23916950.867   125684422.406    23916954.715    97935932.785  
  24014055.102   126194704.135                                  
  24842838.203   130549991.806    24842841.059   101727285.196  
  20343703.344   106906880.173                                  
  24307721.063   127737938.421    24307728.871    99536086.358  
  22502292.406   118250342.868    22502299.570    92143151.437  
  21696197.961   114014289.438    21696204.160    88842332.271  
  20771543.109   109155199.624                                  
  21206169.031   111439172.450    21206174.031    86835741.485  
 18  1 15 22 10 52.0000000  0 11G 2G29G 7G22G31G23G 6G 3G26G16G 9
  25107756.875   131942124.759                                  
  24851019.430   130592992.170    24851024.855   101760804.007  
  23916352.609   125681277.662    23916356.637    97933482.331  
  24014731.164   126198260.360                                  
  24843485.992   130553398.776    24843489.680   101729939.971  
  20343615.953   106906421.895                                  
  24308046.750   127739653.271    24308055.703    99537422.604  
  22502913.266   118253603.489    22502919.750    92145692.185  
  21696461.148   114015672.960    21696467.629    88843410.343  
  20771348.500   109154175.592                                  
  21205721.242   111436820.141    21205726.641    86833908.521  
 18  1 15 22 10 53.0000000  0 11G 2G29G 7G22G31G23G 6G 3G26G16G 9
  25107738.695   131942026.904                                  
  24851206.492   130593976.632    24851212.953   101761571.119  
  23915754.438   125678133.668    23915758.621    97931032.467  
  24015408.391   126201817.336                                  
  24844134.078   130556806.381    24844138.113   101732595.236  
  20343528.984   106905964.726                                  
  24308373.227   127741369.259    24308382.219    99538759.738  
  22503533.703   118256865.060    22503540.375    92148233.666  
  21696724.594   114017057.726    21696731.070    88844489.383  
  20771153.711   109153152.931                                  
  21205274.180   111434468.810    21205278.898    86832076.315  
 18  1 15 22 10 54.0000000  0 11G 2G29G 7G22G31G23G 6G 3G26G16G 9
  25107719.922   131941930.061                                  
  24851394.781   130594962.267    24851400.344   101762339.157  
  23915155.984   125674990.369    23915160.090    97928583.143  
  24016085.172   126205374.938                                  
  24844783.344   130560214.513    24844786.504   101735250.917  
  20343441.836   106905508.549                                  
  24308700.664   127743086.257    24308708.586    99540097.655  
  22504154.477   118260127.496    22504161.191    92150775.826  
  21696988.375   114018443.655    21696994.781    88845569.327  
  20770959.281   109152131.521                                  
  21204826.281   111432118.333    21204831.840    86830244.773  
 18  1 15 22 10 55.0000000  0 11G 2G29G 7G22G31G23G 6G 3G26G16G 9
  25107702.023   131941834.455                                  
  24851582.484   130595949.102    24851588.039   101763108.122  
  23914558.063   125671847.813    23914562.031    97926134.399  
  24016762.328   126208933.357                                  
  24845431.945   130563623.326    24845435.117   101737907.138  
  20343355.438   106905053.489                                  
  24309027.531   127744804.377    24309035.492    99541436.451  
  22504775.289   118263390.913    22504782.469    92153318.750  
  21697252.023   114019830.835    21697258.840    88846650.251  
  20770765.008   109151111.504                                  
  21204379.844   111429768.835    21204384.574    86828414.000  
 18  1 15 22 10 56.0000000  0 11G 2G29G 7G22G31G23G 6G 3G26G16G 9
  25107683.789   131941739.980                                  
  24851771.023   130596937.274    24851775.996   101763878.126  
  23913960.133   125668706.068    23913964.477    97923686.289  
  24017439.938   126212492.449                                  
  24846080.930   130567032.733    24846084.195   101740563.830  
  20343268.945   106904599.525                                  
  24309355.055   127746523.648    24309362.773    99542776.136  
  22505396.445   118266655.308    22505403.262    92155862.430  
  21697516.250   114021219.290    21697522.785    88847732.160  
  20770571.344   109150092.852                                  
  21203932.836   111427420.318    21203937.824    86826583.985  
 18  1 15 22 10 57.0000000  0 11G 2G29G 7G22G31G23G 6G 3G26G16G 9
  25107665.961   131941646.685                                  
  24851959.266   130597926.643    24851964.332   101764649.050  
  23913362.281   125665565.105    23913366.664    97921238.786  
  24018117.117   126216052.323                                  
  24846729.453   130570442.783    24846732.852   101743220.999  
  20343182.938   106904146.663                                  
  24309682.023   127748244.011    24309690.078    99544116.668  
  22506017.688   118269920.630    22506024.984    92158406.834  
  21697780.953   114022608.995    21697787.699    88848815.053  
  20770377.938   109149075.576                                  
  21203486.070   111425072.779    21203490.949    86824754.731  
 18  1 15 22 10 58.0000000  0 11G 2G29G 7G22G31G23G 6G 3G26G16G 9
  25107648.359   131941554.598                                  
  24852147.156   130598917.291    24852151.973   101765420.987  
  23912764.039   125662424.911    23912768.449    97918791.891  
  24018795.508   126219612.976                                  
  24847377.758   130573853.484    24847381.496   101745878.693  
  20343097.070   106903694.941                                  
  24310008.906   127749965.499    24310018.102    99545458.088  
  22506639.648   118273186.940    22506646.930    92160952.014  
  21698045.523   114023999.976    21698052.078    88849898.929  
  20770184.805   109148059.688                                  
  21203039.617   111422726.222    21203044.402    86822926.251  
 18  1 15 22 10 59.0000000  0 11G 2G29G 7G22G31G23G 6G 3G26G16G 9
  25107631.047   131941463.743                                  
  24852336.555   130599909.246    24852341.215   101766193.940  
  23912167.141   125659285.543    23912171.270    97916345.632  
  24019473.031   126223174.428                                  
  24848027.500   130577264.905    24848030.785   101748536.947  
  20343011.211   106903244.353                                  
  24310336.445   127751688.188    24310346.207    99546800.449  
  22507261.789   118276454.272    22507268.352    92163497.988  
  21698310.625   114025392.252    21698317.414    88850983.824  
  20769991.539   109147045.222                                  
  21202592.906   111420380.679    21202597.973    86821098.554  
 18  1 15 22 11  0.0000000  0 11G 2G29G 7G22G31G23G 6G 3G26G16G 9
  25107613.766   131941374.103                                  
  24852526.453   130600902.466    24852530.098   101766967.873  
  23911569.984   125656146.980    23911574.441    97913900.011  
  24020150.781   126226736.679                                  
  24848677.016   130580676.928    24848679.852   101751195.662  
  20342925.617   106902794.896                                  
  24310664.703   127753412.027    24310674.023    99548143.710  
  22507883.594   118279722.590    22507890.117    92166044.727  
  21698575.969   114026785.811    21698581.910    88852069.712  
  20769798.992   109146032.157                                  
  21202147.180   111418036.148    21202151.566    86819271.646  
 18  1 15 22 11  1.0000000  0 11G 2G29G 7G22G31G23G 6G 3G26G16G 9
  25107597.789   131941285.688                                  
  24852715.547   130601897.066    24852719.523   101767742.878  
  23910973.266   125653009.273    23910977.207    97911455.049  
  24020828.695   126230299.748                                  
  24849326.164   130584089.725    24849329.383   101753854.989  
  20342840.367   106902346.639                                  
  24310992.172   127755137.050    24311002.176    99549487.885  
  22508505.109   118282991.956    22508512.715    92168592.283  
  21698840.961   114028180.708    21698847.758    88853156.650  
  20769606.219   109145020.552                                  
  21201701.273   111415692.633    21201706.344    86817445.529  
 18  1 15 22 11  2.0000000  0 11G 2G29G 7G22G31G23G 6G 3G26G16G 9
  25107581.047   131941198.493                                  
  24852904.672   130602892.884    24852909.063   101768518.834  
  23910376.273   125649872.383    23910380.031    97909010.719  
  24021506.703   126233863.597                                  
  24849975.570   130587503.161    24849979.148   101756514.810  
  20342755.258   106901899.514                                  
  24311321.430   127756863.252    24311330.832    99550832.976  
  22509127.586   118286262.320    22509134.949    92171140.621  
  21699106.633   114029576.890    21699113.414    88854244.580  
  20769413.578   109144010.333                                  
  21201255.234   111413350.159    21201260.320    86815620.230  
 18  1 15 22 11  3.0000000  0 11G 2G29G 7G22G31G23G 6G 3G26G16G 9
  25107564.477   131941112.606                                  
  24853094.391   130603890.066    24853098.813   101769295.851  
  23909779.391   125646736.372    23909783.156    97906567.065  
  24022185.188   126237428.279                                  
  24850625.641   130590917.365    24850629.164   101759175.236  
  20342670.523   106901453.610                                  
  24311650.391   127758590.694    24311659.039    99552179.024  
  22509750.438   118289533.729    22509757.316    92173689.765  
  21699372.719   114030974.434    21699379.137    88855333.575  
  20769221.836   109143001.604                                  
  21200809.672   111411008.751    21200814.605    86813795.752  
 18  1 15 22 11  4.0000000  0 11G 2G29G 7G22G31G23G 6G 3G26G16G 9
  25107548.297   131941027.961                                  
  24853283.836   130604888.601    24853288.906   101770073.925  
  23909182.219   125643601.202    23909187.008    97904124.069  
  24022863.680   126240993.864                                  
  24851274.977   130594332.260    24851278.848   101761836.205  
  20342585.867   106901008.870                                  
  24311979.313   127760319.273    24311988.465    99553525.958  
  22510373.430   118292806.188    22510379.945    92176239.727  
  21699639.227   114032373.317    21699646.004    88856423.617  
  20769030.109   109141994.328                                  
  21200364.133   111408668.378    21200369.121    86811972.085  
 18  1 15 22 11  5.0000000  0 11G 2G29G 7G22G31G23G 6G 3G26G16G 9
  25107532.648   131940944.539                                  
  24853473.703   130605888.466    24853478.664   101770853.040  
  23908585.656   125640466.874    23908590.297    97901681.733  
  24023542.578   126244560.227                                  
  24851924.836   130597747.877    24851928.801   101764497.719  
  20342501.609   106900565.314                                  
  24312308.102   127762049.081    24312317.383    99554873.854  
  22510996.180   118296079.711    22511002.910    92178790.521  
  21699905.367   114033773.536    21699911.973    88857514.698  
  20768839.102   109140988.498                                  
  21199918.922   111406329.071    21199923.883    86810149.253  
 18  1 15 22 11  6.0000000  0 11G 2G29G 7G22G31G23G 6G 3G26G16G 9
  25107517.188   131940862.421                                  
  24853663.688   130606889.603    24853669.770   101771633.144  
  23907989.695   125637333.400    23907993.762    97899240.062  
  24024221.242   126248127.454                                  
  24852574.547   130601164.134    24852578.723   101767159.736  
  20342417.203   106900122.914                                  
  24312638.141   127763780.071    24312647.250    99556222.679  
  22511618.891   118299354.217    22511625.668    92181342.086  
  21700172.172   114035175.060    21700178.949    88858606.793  
  20768647.703   109139984.105                                  
  21199474.125   111403990.785    21199479.195    86808327.210  
 18  1 15 22 11  7.0000000  0 11G 2G29G 7G22G31G23G 6G 3G26G16G 9
  25107501.414   131940781.473                                  
  24853855.227   130607892.029    24853860.160   101772414.256  
  23907393.875   125634200.741    23907397.422    97896799.029  
  24024900.172   126251695.416                                  
  24853224.797   130604581.214    24853228.961   101769822.385  
  20342333.234   106899681.697                                  
  24312967.125   127765512.229    24312976.547    99557572.426  
  22512242.523   118302629.767    22512249.422    92183894.461  
  21700439.023   114036577.877    21700445.941    88859699.898  
  20768456.680   109138981.143                                  
  21199029.648   111401653.526    21199034.465    86806505.973  
 18  1 15 22 11  8.0000000  0 11G 2G29G 7G22G31G23G 6G 3G26G16G 9
  25107487.164   131940701.845                                  
  24854046.172   130608895.853    24854051.297   101773196.460  
  23906797.758   125631068.958    23906801.867    97894358.675  
  24025578.961   126255264.267                                  
  24853875.109   130607998.950    24853879.461   101772485.543  
  20342249.953   106899241.665                                  
  24313297.438   127767245.632    24313306.250    99558923.135  
  22512865.938   118305906.354    22512872.324    92186447.645  
  21700706.453   114037982.074    21700712.809    88860794.071  
  20768266.148   109137979.634                                  
  21198585.070   111399317.326    21198590.023    86804685.562  
 18  1 15 22 11  9.0000000  0 11G 2G29G 7G22G31G23G 6G 3G26G16G 9
  25107471.828   131940623.439                                  
  24854237.273   130609900.976    24854242.668   101773979.688  
  23906201.109   125627938.018    23906205.742    97891918.974  
  24026259.023   126258833.915                                  
  24854525.469   130611417.398    24854529.695   101775149.269  
  20342166.047   106898802.796                                  
  24313627.508   127768980.190    24313636.512    99560274.741  
  22513489.797   118309183.988    22513496.441    92189001.650  
  21700973.898   114039387.577    21700980.504    88861889.273  
  20768076.023   109136979.592                                  
  21198140.406   111396982.192    21198145.785    86802865.972  
 18  1 15 22 11 10.0000000  0 11G 2G29G 7G22G31G23G 6G 3G26G16G 9
  25107456.617   131940546.213                                  
  24854428.508   130610907.397    24854433.711   101774763.919  
  23905605.930   125624807.888    23905610.328    97889479.908  
  24026937.758   126262404.343                                  
  24855176.781   130614836.503    24855180.285   101777813.510  
  20342082.734   106898365.060                                  
  24313957.961   127770715.918    24313966.887    99561627.252  
  22514113.578   118312462.610    22514120.273    92191556.421  
  21701241.273   114040794.382    21701248.414    88862985.486  
  20767885.914   109135980.937                                  
  21197696.516   111394648.033    21197701.277    86801047.147  
 18  1 15 22 11 11.0000000  0 11G 2G29G 7G22G31G23G 6G 3G26G16G 9
  25107442.570   131940470.271                                  
  24854620.336   130611915.129    24854625.195   101775549.161  
  23905010.758   125621678.619    23905015.070    97887041.514  
  24027617.555   126265975.628                                  
  24855827.148   130618256.356    24855831.105   101780478.337  
  20341999.703   106897928.529                                  
  24314287.977   127772452.817    24314297.434    99562980.683  
  22514737.117   118315742.260    22514744.250    92194111.993  
  21701509.141   114042202.513    21701515.965    88864082.729  
  20767696.055   109134983.727                                  
  21197251.750   111392314.940    21197257.305    86799229.158  
 18  1 15 22 11 12.0000000  0 11G 2G29G 7G22G31G23G 6G 3G26G16G 9
  25107428.734   131940395.585                                  
  24854812.070   130612924.146    24854817.461   101776335.408  
  23904415.305   125618550.174    23904419.289    97884603.768  
  24028297.258   126269547.734                                  
  24856478.539   130621676.832    24856482.363   101783143.648  
  20341916.719   106897493.161                                  
  24314619.148   127774190.935    24314627.770    99564335.059  
  22515362.070   118319022.953    22515368.711    92196668.381  
  21701777.680   114043611.945    21701784.383    88865180.982  
  20767506.703   109133987.962                                  
  21196808.273   111389982.897    21196813.621    86797411.980  
 18  1 15 22 11 13.0000000  0 11G 2G29G 7G22G31G23G 6G 3G26G16G 9
  25107414.313   131940322.148                                  
  24855004.867   130613934.499    24855009.992   101777122.696  
  23903820.203   125615422.608    23903824.379    97882166.703  
  24028976.766   126273120.649                                  
  24857128.547   130625098.129    24857133.039   101785809.604  
  20341834.055   106897058.956                                  
  24314950.211   127775930.272    24314958.914    99565690.383  
  22515986.273   118322304.682    22515993.215    92199225.573  
  21702046.016   114045022.731    21702053.016    88866280.297  
  20767317.523   109132993.649                                  
  21196364.336   111387651.891    21196369.891    86795595.616  
 18  1 15 22 11 14.0000000  0 11G 2G29G 7G22G31G23G 6G 3G26G16G 9
  25107401.180   131940249.904                                  
  24855197.984   130614946.144    24855202.281   101777910.996  
  23903224.789   125612295.816    23903229.211    97879730.245  
  24029657.086   126276694.348                                  
  24857780.797   130628520.062    24857784.438   101788476.028  
  20341751.828   106896625.913                                  
  24315281.188   127777670.716    24315290.309    99567046.567  
  22516610.969   118325587.414    22516617.875    92201783.543  
  21702314.617   114046434.788    21702321.559    88867380.601  
  20767128.477   109132000.746                                  
  21195921.320   111385321.889    21195926.629    86793780.033  
 18  1 15 22 11 15.0000000  0 11G 2G29G 7G22G31G23G 6G 3G26G16G 9
  25107386.703   131940178.897                                  
  24855390.625   130615959.130    24855394.629   101778700.336  
  23902630.484   125609169.863    23902634.305    97877294.437  
  24030337.641   126280268.854                                  
  24858431.852   130631942.630    24858435.484   101791142.962  
  20341669.547   106896193.987                                  
  24315612.805   127779412.346    24315620.992    99568403.685  
  22517235.906   118328871.140    22517242.813    92204342.290  
  21702583.531   114047848.165    21702590.152    88868481.934  
  20766939.555   109131009.250                                  
  21195478.297   111382992.887    21195483.566    86791965.226  
 18  1 15 22 11 16.0000000  0 11G 2G29G 7G22G31G23G 6G 3G26G16G 9
  25107372.984   131940109.067                                  
  24855583.844   130616973.293    24855588.168   101779490.592  
  23902035.461   125606044.688    23902040.246    97874859.238  
  24031017.992   126283844.109                                  
  24859083.031   130635365.854    24859086.777   101793810.414  
  20341587.563   106895763.171                                  
  24315944.367   127781155.037    24315953.098    99569761.621  
  22517860.781   118332155.793    22517867.813    92206901.757  
  21702852.609   114049262.755    21702859.551    88869584.211  
  20766751.578   109130019.110                                  
  21195035.563   111380664.859    21195040.379    86790151.178  
 18  1 15 22 11 17.0000000  0 11G 2G29G 7G22G31G23G 6G 3G26G16G 9
  25107360.555   131940040.384                                  
  24855776.852   130617988.700    24855781.875   101780281.819  
  23901440.992   125602920.241    23901445.516    97872424.610  
  24031698.648   126287420.091                                  
  24859734.852   130638789.656    24859737.770   101796478.316  
  20341505.953   106895333.437                                  
  24316276.281   127782898.900    24316285.199    99571120.483  
  22518486.445   118335441.404    22518493.129    92209461.969  
  21703121.820   114050678.583    21703128.695    88870687.453  
  20766562.836   109129030.319                                  
  21194592.633   111378337.765    21194597.781    86788337.854  
 18  1 15 22 11 18.0000000  0 11G 2G29G 7G22G31G23G 6G 3G26G16G 9
  25107348.766   131939972.996                                  
  24855970.945   130619005.453    24855975.191   101781074.092  
  23900846.570   125599796.608    23900850.875    97869990.615  
  24032379.023   126290996.859                                  
  24860387.445   130642214.239    24860389.828   101799146.822  
  20341424.305   106894904.879                                  
  24316609.188   127784643.881    24316616.996    99572480.199  
  22519111.445   118338728.035    22519118.465    92212022.980  
  21703391.805   114052095.723    21703398.973    88871791.721  
  20766375.250   109128042.966                                  
  21194150.039   111376011.720    21194154.863    86786525.355  
 18  1 15 22 11 19.0000000  0 11G 2G29G 7G22G31G23G 6G 3G26G16G 9
  25107336.555   131939906.662                                  
  24856164.430   130620023.343    24856169.039   101781867.263  
  23900252.563   125596673.740    23900256.773    97867557.217  
  24033059.844   126294574.372                                  
  24861038.523   130645639.349    24861041.512   101801815.734  
  20341342.930   106894477.372                                  
  24316941.148   127786389.969    24316949.547    99573840.784  
  22519736.836   118342015.603    22519743.762    92214584.723  
  21703662.039   114053514.091    21703668.414    88872896.941  
  20766187.766   109127056.954                                  
  21193707.703   111373686.613    21193712.066    86784713.587  
 18  1 15 22 11 20.0000000  0 11G 2G29G 7G22G31G23G 6G 3G26G16G 9
  25107323.102   131939841.466                                  
  24856358.008   130621042.594    24856362.691   101782661.470  
  23899658.188   125593551.632    23899662.324    97865124.398  
  24033740.438   126298152.574                                  
  24861689.984   130649065.089    24861693.840   101804485.149  
  20341261.961   106894050.959                                  
  24317272.805   127788137.145    24317281.902    99575202.226  
  22520363.055   118345304.096    22520369.945    92217147.173  
  21703931.828   114054933.675    21703938.832    88874003.118  
  20766000.313   109126072.276                                  
  21193265.422   111371362.423    21193270.121    86782902.526  
 18  1 15 22 11 21.0000000  0 11G 2G29G 7G22G31G23G 6G 3G26G16G 9
  25107310.500   131939777.479                                  
  24856551.930   130622062.975    24856556.891   101783456.558  
  23899064.711   125590430.250    23899068.320    97862692.151  
  24034421.313   126301731.528                                  
  24862342.305   130652491.455    24862346.371   101807155.051  
  20341181.031   106893625.612                                  
  24317605.664   127789885.433    24317615.094    99576564.537  
  22520989.172   118348593.549    22520996.141    92219710.375  
  21704202.000   114056354.509    21704209.270    88875110.262  
  20765813.188   109125088.976                                  
  21192823.063   111369039.195    21192827.820    86781092.219  
 18  1 15 22 11 22.0000000  0 11G 2G29G 7G22G31G23G 6G 3G26G16G 9
  25107298.891   131939714.675                                  
  24856745.609   130623084.600    24856751.035   101784252.616  
  23898470.727   125587309.680    23898474.383    97860260.541  
  24035102.477   126305311.288                                  
  24862994.766   130655918.456    24862998.184   101809825.437  
  20341100.023   106893201.391                                  
  24317939.297   127791634.838    24317947.652    99577927.712  
  22521615.984   118351883.939    22521621.980    92222274.305  
  21704472.898   114057776.587    21704479.840    88876218.373  
  20765626.719   109124107.047                                  
  21192381.211   111366716.987    21192386.004    86779282.709  
 18  1 15 22 11 23.0000000  0 11G 2G29G 7G22G31G23G 6G 3G26G16G 9
  25107286.438   131939652.970                                  
  24856940.594   130624107.417    24856945.895   101785049.620  
  23897877.844   125584189.813    23897880.855    97857829.478  
  24035783.766   126308891.646                                  
  24863646.484   130659345.992    24863650.613   101812496.242  
  20341019.602   106892778.189                                  
  24318271.648   127793385.255    24318280.383    99579291.684  
  22522242.086   118355175.192    22522248.609    92224838.913  
  21704743.430   114059199.844    21704750.352    88877327.403  
  20765440.188   109123126.399                                  
  21191939.242   111364395.628    21191944.441    86777473.854  
 18  1 15 22 11 24.0000000  0 11G 2G29G 7G22G31G23G 6G 3G26G16G 9
  25107275.063   131939592.407                                  
  24857135.617   130625131.480    24857140.625   101785847.588  
  23897284.000   125581070.696    23897287.371    97855398.999  
  24036465.508   126312472.777                                  
  24864299.031   130662774.193    24864303.191   101815167.566  
  20340939.172   106892356.091                                  
  24318604.820   127795136.827    24318613.809    99580656.554  
  22522868.047   118358467.419    22522874.449    92227404.291  
  21705015.094   114060624.366    21705021.809    88878437.423  
  20765253.555   109122147.138                                  
  21191497.844   111362075.246    21191502.902    86775665.760  
 18  1 15 22 11 25.0000000  0 11G 2G29G 7G22G31G23G 6G 3G26G16G 9
  25107264.813   131939532.971                                  
  24857330.008   130626156.685    24857335.367   101786646.446  
  23896690.383   125577952.280    23896693.836    97852969.069  
  24037146.930   126316054.556                                  
  24864950.953   130666202.950    24864955.379   101817839.320  
  20340859.211   106891934.992                                  
  24318937.844   127796889.418    24318946.797    99582022.222  
  22523495.477   118361760.558    22523501.250    92229970.374  
  21705286.094   114062050.037    21705292.996    88879548.330  
  20765067.852   109121169.172                                  
  21191056.266   111359755.765    21191061.668    86773858.372  
 18  1 15 22 11 26.0000000  0 11G 2G29G 7G22G31G23G 6G 3G26G16G 9
  25107252.852   131939474.657                                  
  24857525.445   130627183.124    24857531.297   101787446.276  
  23896096.781   125574834.601    23896100.406    97850539.704  
  24037828.727   126319637.093                                  
  24865603.664   130669632.270    24865607.879   101820511.520  
  20340779.117   106891514.994                                  
  24319271.313   127798643.146    24319280.789    99583388.755  
  22524121.555   118365054.584    22524128.023    92232537.152  
  21705557.641   114063476.930    21705564.934    88880660.198  
  20764881.477   109120192.519                                  
  21190615.023   111357437.216    21190620.297    86772051.716  
 18  1 15 22 11 27.0000000  0 11G 2G29G 7G22G31G23G 6G 3G26G16G 9
  25107242.063   131939417.581                                  
  24857721.484   130628210.865    24857726.574   101788247.131  
  23895503.750   125571717.752    23895507.672    97848110.988  
  24038510.664   126323220.380                                  
  24866256.320   130673062.283    24866260.258   101823184.257  
  20340699.117   106891096.122                                  
  24319605.117   127800397.980    24319614.625    99584756.130  
  22524748.336   118368349.604    22524754.906    92235104.713  
  21705829.414   114064905.124    21705836.328    88881773.079  
  20764695.938   109119217.310                                  
  21190174.211   111355119.673    21190178.891    86770245.849  
 18  1 15 22 11 28.0000000  0 11G 2G29G 7G22G31G23G 6G 3G26G16G 9
  25107231.297   131939361.690                                  
  24857916.531   130629239.807    24857922.227   101789048.910  
  23894911.109   125568601.631    23894914.859    97845682.828  
  24039193.109   126326804.432                                  
  24866910.297   130676492.886    24866913.469   101825857.455  
  20340619.578   106890678.323                                  
  24319939.000   127802153.849    24319948.520    99586124.329  
  22525375.375   118371645.563    22525382.699    92237672.992  
  21706101.086   114066334.544    21706107.961    88882886.908  
  20764510.719   109118243.405                                  
  21189733.297   111352803.090    21189738.152    86768440.712  
 18  1 15 22 11 29.0000000  0 11G 2G29G 7G22G31G23G 6G 3G26G16G 9
  25107220.398   131939306.881                                  
  24858113.422   130630269.925    24858118.629   101789851.602  
  23894318.063   125565486.306    23894322.180    97843255.296  
  24039874.266   126330389.189                                  
  24867563.727   130679924.163    24867566.629   101828531.173  
  20340540.664   106890261.656                                  
  24320273.977   127803910.923    24320283.355    99587493.479  
  22526002.398   118374942.484    22526009.715    92240242.021  
  21706373.500   114067765.205    21706380.254    88884001.710  
  20764325.648   109117270.908                                  
  21189293.070   111350487.453    21189297.867    86766636.319  
 18  1 15 22 11 30.0000000  0 11G 2G29G 7G22G31G23G 6G 3G26G16G 9
  25107211.383   131939253.187                                  
  24858309.734   130631301.335    24858314.371   101790655.303  
  23893724.969   125562371.645    23893729.340    97840828.286  
  24040556.688   126333974.614                                  
  24868217.313   130683355.942    24868219.992   101831205.293  
  20340461.602   106889845.950                                  
  24320608.609   127805668.982    24320617.531    99588863.405  
  22526630.719   118378240.267    22526637.688    92242811.727  
  21706645.898   114069197.007    21706653.012    88885117.399  
  20764141.070   109116299.656                                  
  21188852.594   111348172.696    21188857.742    86764832.606  
 18  1 15 22 11 31.0000000  0 11G 2G29G 7G22G31G23G 6G 3G26G16G 9
  25107201.281   131939200.713                                  
  24858507.008   130632333.921    24858511.070   101791459.911  
  23893132.086   125559257.779    23893136.652    97838401.898  
  24041240.055   126337560.845                                  
  24868869.227   130686788.435    24868873.371   101833879.965  
  20340382.625   106889431.407                                  
  24320942.734   127807428.190    24320952.570    99590234.220  
  22527257.672   118381539.027    22527265.109    92245382.187  
  21706918.664   114070630.112    21706925.613    88886234.103  
  20763956.281   109115329.826                                  
  21188412.109   111345858.952    21188417.023    86763029.697  
 18  1 15 22 11 32.0000000  0 11G 2G29G 7G22G31G23G 6G 3G26G16G 9
  25107191.492   131939149.359                                  
  24858703.813   130633367.731    24858708.188   101792265.474  
  23892539.484   125556144.615    23892544.266    97835976.059  
  24041922.828   126341147.734                                  
  24869522.117   130690221.425    24869526.117   101836555.029  
  20340303.992   106889017.892                                  
  24321277.906   127809188.504    24321287.691    99591605.894  
  22527885.898   118384838.707    22527892.895    92247953.366  
  21707191.625   114072064.410    21707198.305    88887351.737  
  20763771.914   109114361.309                                  
  21187972.063   111343546.109    21187977.246    86761227.481  
 18  1 15 22 11 33.0000000  0 11G 2G29G 7G22G31G23G 6G 3G26G16G 9
  25107181.969   131939099.214                                  
  24858899.789   130634402.823    24858905.105   101793072.039  
  23891947.609   125553032.282    23891951.707    97833550.877  
  24042605.047   126344735.357                                  
  24870175.734   130693655.167    24870179.926   101839230.666  
  20340225.758   106888605.502                                  
  24321613.883   127810949.912    24321622.664    99592978.396  
  22528514.227   118388139.382    22528521.184    92250525.315  
  21707465.086   114073499.990    21707471.688    88888470.370  
  20763588.055   109113394.206                                  
  21187532.031   111341234.272    21187536.973    86759426.055  
 18  1 15 22 11 34.0000000  0 11G 2G29G 7G22G31G23G 6G 3G26G16G 9
  25107172.508   131939050.275                                  
  24859097.742   130635439.154    24859102.461   101793879.576  
  23891355.398   125549920.757    23891359.805    97831126.322  
  24043287.852   126348323.856                                  
  24870828.406   130697089.509    24870832.441   101841906.756  
  20340147.211   106888194.267                                  
  24321949.086   127812712.509    24321958.438    99594351.831  
  22529142.578   118391441.031    22529148.973    92253098.024  
  21707738.734   114074936.841    21707744.965    88889589.992  
  20763403.914   109112428.497                                  
  21187092.141   111338923.449    21187096.926    86757625.418  
 18  1 15 22 11 35.0000000  0 11G 2G29G 7G22G31G23G 6G 3G26G16G 9
  25107162.984   131939002.540                                  
  24859295.602   130636476.849    24859299.375   101794688.170  
  23890763.141   125546810.063    23890767.484    97828702.408  
  24043970.445   126351913.126                                  
  24871482.484   130700524.567    24871486.555   101844583.417  
  20340069.039   106887784.193                                  
  24322285.078   127814476.225    24322293.516    99595726.141  
  22529770.398   118394743.701    22529777.484    92255671.538  
  21708012.281   114076375.014    21708018.691    88890710.646  
  20763220.156   109111464.219                                  
  21186652.508   111336613.653    21186657.098    86755825.577  
 18  1 15 22 11 36.0000000  0 11G 2G29G 7G22G31G23G 6G 3G26G16G 9
  25107154.352   131938956.101                                  
  24859492.680   130637515.842    24859497.383   101795497.783  
  23890172.086   125543700.226    23890176.195    97826279.161  
  24044653.852   126355503.227                                  
  24872136.711   130703960.315    24872140.813   101847260.628  
  20339991.391   106887375.313                                  
  24322621.430   127816241.187    24322629.965    99597101.434  
  22530399.297   118398047.416    22530406.285    92258245.859  
  21708286.133   114077814.513    21708292.656    88891832.340  
  20763037.180   109110501.415                                  
  21186213.586   111334304.895    21186217.863    86754026.543  
 18  1 15 22 11 37.0000000  0 11G 2G29G 7G22G31G23G 6G 3G26G16G 9
  25107145.922   131938910.917                                  
  24859690.703   130638556.190    24859695.457   101796308.443  
  23889580.422   125540591.233    23889584.371    97823856.576  
  24045337.164   126359094.161                                  
  24872790.531   130707396.827    24872794.160   101849938.432  
  20339913.938   106886967.631                                  
  24322956.789   127818007.342    24322965.703    99598477.663  
  22531028.680   118401352.170    22531035.520    92260820.992  
  21708559.891   114079255.366    21708566.840    88892955.078  
  20762854.656   109109540.064                                  
  21185774.195   111331997.208    21185778.688    86752228.351  
 18  1 15 22 11 38.0000000  0 11G 2G29G 7G22G31G23G 6G 3G26G16G 9
  25107136.719   131938866.907                                  
  24859889.336   130639597.792    24859893.262   101797120.081  
  23888988.844   125537483.043    23888992.883    97821434.610  
  24046020.430   126362685.830                                  
  24873444.453   130710833.929    24873448.758   101852616.699  
  20339836.781   106886561.030                                  
  24323293.039   127819774.598    24323302.223    99599854.760  
  22531657.602   118404657.861    22531664.625    92263396.857  
  21708834.727   114080697.442    21708841.684    88894078.777  
  20762672.063   109108580.069                                  
  21185335.289   111329690.497    21185340.465    86750430.910  
 18  1 15 22 11 39.0000000  0 11G 2G29G 7G22G31G23G 6G 3G26G16G 9
  25107129.648   131938824.104                                  
  24860087.195   130640640.575    24860091.738   101797932.634  
  23888398.359   125534375.649    23888401.383    97819013.264  
  24046704.375   126366278.268                                  
  24874098.164   130714271.756    24874102.570   101855295.520  
  20339759.016   106886155.539                                  
  24323630.000   127821542.985    24323638.453    99601232.734  
  22532287.320   118407964.547    22532293.734    92265973.491  
  21709109.297   114082140.799    21709115.668    88895203.473  
  20762489.609   109107621.491                                  
  21184896.531   111327384.755    21184901.566    86748634.229  
 18  1 15 22 11 40.0000000  0 11G 2G29G 7G22G31G23G 6G 3G26G16G 9
  25107120.961   131938782.515                                  
  24860285.273   130641684.722    24860290.723   101798746.258  
  23887807.070   125531269.075    23887810.863    97816592.545  
  24047388.445   126369871.511                                  
  24874752.938   130717710.177    24874756.801   101857974.809  
  20339682.359   106885751.219                                  
  24323965.133   127823312.563    24323975.176    99602611.634  
  22532916.820   118411272.246    22532923.203    92268550.914  
  21709383.977   114083585.483    21709390.984    88896329.199  
  20762307.258   109106664.327                                  
  21184457.883   111325080.049    21184463.031    86746838.354  
 18  1 15 22 11 41.0000000  0 11G 2G29G 7G22G31G23G 6G 3G26G16G 9
  25107112.461   131938742.100                                  
  24860484.695   130642730.128    24860489.598   101799560.853  
  23887215.555   125528163.261    23887219.383    97814172.420  
  24048071.633   126373465.485                                  
  24875407.633   130721149.268    24875411.492   101860654.639  
  20339605.523   106885347.999                                  
  24324302.406   127825083.225    24324312.195    99603991.368  
  22533546.398   118414580.879    22533552.520    92271129.064  
  21709659.391   114085031.383    21709665.809    88897455.872  
  20762125.188   109105708.521                                  
  21184019.375   111322776.318    21184024.727    86745043.245  
 18  1 15 22 11 42.0000000  0 11G 2G29G 7G22G31G23G 6G 3G26G16G 9
  25107105.500   131938702.880                                  
  24860683.945   130643776.768    24860688.504   101800376.408  
  23886624.219   125525058.255    23886628.441    97811752.932  
  24048756.219   126377060.276                                  
  24876062.039   130724589.011    24876065.930   101863334.959  
  20339529.234   106884945.899                                  
  24324639.430   127826855.044    24324649.395    99605372.007  
  22534176.242   118417890.515    22534182.375    92273708.003  
  21709934.523   114086478.576    21709940.895    88898583.558  
  20761943.695   109104754.136                                  
  21183581.555   111320473.578    21183586.520    86743248.903  
 18  1 15 22 11 43.0000000  0 11G 2G29G 7G22G31G23G 6G 3G26G16G 9
  25107099.063   131938664.935                                  
  24860882.414   130644824.754    24860887.883   101801193.018  
  23886034.203   125521954.110    23886038.012    97809334.113  
  24049440.656   126380655.838                                  
  24876716.641   130728029.476    24876720.582   101866015.845  
  20339452.859   106884544.982                                  
  24324977.383   127828628.040    24324986.910    99606753.564  
  22534805.922   118421201.172    22534812.191    92276287.737  
  21710210.453   114087927.089    21710216.957    88899712.271  
  20761762.250   109103801.182                                  
  21183143.398   111318171.897    21183148.176    86741455.390  
 18  1 15 22 11 44.0000000  0 11G 2G29G 7G22G31G23G 6G 3G26G16G 9
  25107091.539   131938628.264                                  
  24861082.820   130645874.054    24861088.336   101802010.651  
  23885443.578   125518850.811    23885447.297    97806915.954  
  24050124.594   126384252.294                                  
  24877371.273   130731470.646    24877375.961   101868697.272  
  20339376.797   106884145.243                                  
  24325315.320   127830402.273    24325324.004    99608136.076  
  22535436.578   118424512.879    22535442.688    92278868.290  
  21710486.531   114089376.914    21710493.055    88900842.004  
  20761581.406   109102849.674                                  
  21182705.875   111315871.258    21182710.684    86739662.680  
 18  1 15 22 11 45.0000000  0 11G 2G29G 7G22G31G23G 6G 3G26G16G 9
  25107085.648   131938592.716                                  
  24861282.320   130646924.586    24861288.250   101802829.247  
  23884852.789   125515748.312    23884857.035    97804498.422  
  24050809.484   126387849.432                                  
  24878026.945   130734912.504    24878030.215   101871379.251  
  20339300.891   106883746.637                                  
  24325652.164   127832177.593    24325662.461    99609519.438  
  22536066.773   118427825.542    22536073.129    92281449.590  
  21710762.375   114090828.034    21710768.871    88901972.744  
  20761400.477   109101899.566                                  
  21182268.234   111313571.619    21182272.574    86737870.754  
 18  1 15 22 11 46.0000000  0 11G 2G29G 7G22G31G23G 6G 3G26G16G 9
  25107079.195   131938558.520                                  
  24861481.781   130647976.548    24861487.582   101803648.958  
  23884262.445   125512646.707    23884267.051    97802081.578  
  24051494.281   126391447.471                                  
  24878681.484   130738355.044    24878685.395   101874061.741  
  20339225.398   106883349.260                                  
  24325990.758   127833954.213    24326000.383    99610903.815  
  22536697.359   118431139.281    22536703.867    92284031.724  
  21711038.766   114092280.519    21711045.078    88903104.550  
  20761220.016   109100950.948                                  
  21181830.586   111311273.058    21181835.297    86736079.667  
 18  1 15 22 11 47.0000000  0 11G 2G29G 7G22G31G23G 6G 3G26G16G 9
  25107071.805   131938525.608                                  
  24861682.984   130649029.834    24861688.461   101804469.695  
  23883672.680   125509545.989    23883677.227    97799665.435  
  24052179.094   126395046.378                                  
  24879336.719   130741798.439    24879340.719   101876744.905  
  20339149.773   106882953.104                                  
  24326329.586   127835732.000    24326339.094    99612289.103  
  22537327.859   118434454.105    22537334.281    92286614.707  
  21711314.984   114093734.367    21711322.180    88904237.420  
  20761039.797   109100003.858                                  
  21181393.320   111308975.587    21181398.223    86734289.433  
 18  1 15 22 11 48.0000000  0 11G 2G29G 7G22G31G23G 6G 3G26G16G 9
  25107066.398   131938493.947                                  
  24861883.148   130650084.480    24861889.328   101805291.489  
  23883082.219   125506446.121    23883087.227    97797249.951  
  24052864.477   126398646.138                                  
  24879992.133   130745242.453    24879995.918   101879428.552  
  20339074.594   106882558.134                                  
  24326668.664   127837511.003    24326677.254    99613675.331  
  22537958.719   118437769.963    22537965.992    92289198.486  
  21711592.156   114095189.548    21711599.063    88905371.326  
  20760859.719   109099058.198                                  
  21180956.391   111306679.194    21180961.445    86732500.038  
 18  1 15 22 11 49.0000000  0 11G 2G29G 7G22G31G23G 6G 3G26G16G 9
  25107060.602   131938463.579                                  
  24862084.469   130651140.464    24862089.996   101806114.334  
  23882492.898   125503347.146    23882497.273    97794835.175  
  24053549.727   126402246.706                                  
  24880647.273   130748687.260    24880651.207   101882112.815  
  20339000.063   106882164.379                                  
  24327007.297   127839291.227    24327015.566    99615062.521  
  22538590.188   118441086.908    22538596.438    92291783.116  
  21711869.508   114096646.101    21711876.500    88906506.306  
  20760680.633   109098114.036                                  
  21180519.602   111304383.861    21180524.246    86730711.464  
 18  1 15 22 11 50.0000000  0 11G 2G29G 7G22G31G23G 6G 3G26G16G 9
  25107055.125   131938434.526                                  
  24862286.523   130652197.857    24862291.441   101806938.284  
  23881903.391   125500249.110    23881908.023    97792421.129  
  24054234.438   126405848.281                                  
  24881302.711   130752132.785    24881306.727   101884797.640  
  20338925.172   106881771.889                                  
  24327345.289   127841072.782    24327354.691    99616450.736  
  22539221.289   118444404.943    22539227.902    92294368.591  
  21712147.195   114098104.063    21712153.848    88907642.382  
  20760500.766   109097171.402                                  
  21180083.086   111302089.683    21180087.992    86728923.792  
 18  1 15 22 11 51.0000000  0 11G 2G29G 7G22G31G23G 6G 3G26G16G 9
  25107050.016   131938406.911                                  
  24862487.594   130653256.687    24862492.785   101807763.356  
  23881314.234   125497152.043    23881318.371    97790007.832  
  24054920.055   126409450.659                                  
  24881958.914   130755579.206    24881962.176   101887483.176  
  20338850.734   106881380.703                                  
  24327684.969   127842855.586    24327693.617    99617839.919  
  22539852.992   118447724.136    22539859.707    92296954.977  
  21712424.844   114099563.473    21712430.965    88908779.586  
  20760321.867   109096230.347                                  
  21179647.070   111299796.658    21179651.770    86727137.020  
 18  1 15 22 11 52.0000000  0 11G 2G29G 7G22G31G23G 6G 3G26G16G 9
  25107044.953   131938380.648                                  
  24862689.953   130654316.986    24862694.145   101808589.572  
  23880725.039   125494055.978    23880729.227    97787595.313  
  24055605.547   126413054.074                                  
  24882615.117   130759026.468    24882618.297   101890169.346  
  20338776.336   106880990.837                                  
  24328024.969   127844639.749    24328033.492    99619230.175  
  22540484.828   118451044.516    22540491.516    92299542.289  
  21712702.578   114101024.347    21712709.434    88909917.926  
  20760142.945   109095290.871                                  
  21179210.578   111297504.848    21179215.473    86725351.193  
 18  1 15 22 11 53.0000000  0 11G 2G29G 7G22G31G23G 6G 3G26G16G 9
  25107039.625   131938355.682                                  
  24862893.180   130655378.694    24862896.430   101809416.883  
  23880135.930   125490960.863    23880140.098    97785183.532  
  24056291.383   126416658.427                                  
  24883271.625   130762474.562    24883274.457   101892856.175  
  20338702.445   106880602.259                                  
  24328364.141   127846425.215    24328372.984    99620621.450  
  22541116.734   118454366.019    22541123.359    92302130.476  
  21712981.242   114102486.651    21712987.613    88911057.383  
  20759964.445   109094352.930                                  
  21178774.344   111295214.163    21178779.727    86723566.248  
 18  1 15 22 11 54.0000000  0 11G 2G29G 7G22G31G23G 6G 3G26G16G 9
  25107035.242   131938332.178                                  
  24863094.602   130656441.904    24863098.531   101810245.354  
  23879546.797   125487866.697    23879551.168    97782772.496  
  24056977.328   126420263.700                                  
  24883927.898   130765923.473    24883930.594   101895543.637  
  20338628.969   106880214.984                                  
  24328704.922   127848211.959    24328713.020    99622013.721  
  22541748.719   118457688.665    22541755.938    92304719.554  
  21713259.594   114103950.394    21713266.004    88912197.963  
  20759786.063   109093416.591                                  
  21178339.109   111292924.641    21178343.945    86721782.204  
 18  1 15 22 11 55.0000000  0 11G 2G29G 7G22G31G23G 6G 3G26G16G 9
  25107031.406   131938310.054                                  
  24863297.891   130657506.527    24863300.891   101811074.931  
  23878958.289   125484773.557    23878962.141    97780362.257  
  24057664.367   126423869.957                                  
  24884584.563   130769373.261    24884586.988   101898231.787  
  20338555.383   106879829.052                                  
  24329044.680   127850000.066    24329053.164    99623407.056  
  22542381.617   118461012.554    22542388.246    92307309.593  
  21713538.508   114105415.639    21713545.227    88913339.713  
  20759608.086   109092481.847                                  
  21177903.500   111290636.348    21177908.492    86719999.120  
 18  1 15 22 11 56.0000000  0 11G 2G29G 7G22G31G23G 6G 3G26G16G 9
  25107026.875   131938289.284                                  
  24863500.641   130658572.643    24863503.605   101811905.665  
  23878370.922   125481681.392    23878374.008    97777952.778  
  24058350.406   126427477.146                                  
  24885240.375   130772823.844    24885243.273   101900920.548  
  20338481.836   106879444.408                                  
  24329385.094   127851789.502    24329393.734    99624801.425  
  22543013.977   118464337.549    22543021.266    92309900.492  
  21713817.469   114106882.317    21713823.750    88914482.577  
  20759430.258   109091548.674                                  
  21177468.055   111288349.225    21177472.914    86718216.946  
 18  1 15 22 11 57.0000000  0 11G 2G29G 7G22G31G23G 6G 3G26G16G 9
  25107023.438   131938269.862                                  
  24863703.344   130659640.114    24863707.578   101812737.453  
  23877782.406   125478590.133    23877786.082    97775544.000  
  24059037.242   126431085.241                                  
  24885897.008   130776275.221    24885900.496   101903609.931  
  20338408.969   106879061.000                                  
  24329725.391   127853580.172    24329734.359    99626196.762  
  22543647.383   118467663.644    22543653.852    92312492.245  
  21714096.578   114108350.387    21714103.641    88915626.531  
  20759253.523   109090617.014                                  
  21177033.094   111286063.182    21177038.316    86716435.620  
 18  1 15 22 11 58.0000000  0 11G 2G29G 7G22G31G23G 6G 3G26G16G 9
  25107019.773   131938251.771                                  
  24863906.555   130660708.980    24863910.691   101813570.342  
  23877193.477   125475499.827    23877197.391    97773135.971  
  24059723.648   126434694.229                                  
  24886554.008   130779727.393    24886557.434   101906299.931  
  20338336.578   106878678.875                                  
  24330066.477   127855372.138    24330075.473    99627593.102  
  22544280.477   118470990.845    22544287.078    92315084.872  
  21714376.461   114109819.867    21714383.301    88916771.579  
  20759076.375   109089686.889                                  
  21176598.352   111283778.293    21176603.242    86714655.189  
 18  1 15 22 11 59.0000000  0 11G 2G29G 7G22G31G23G 6G 3G26G16G 9
  25107016.766   131938235.033                                  
  24864109.352   130661779.353    24864114.453   101814404.396  
  23876605.391   125472410.464    23876609.730    97770728.671  
  24060411.219   126438304.163                                  
  24887211.625   130783180.368    24887214.531   101908990.559  
  20338264.070   106878298.060                                  
  24330407.820   127857165.389    24330417.258    99628990.438  
  22544914.344   118474319.204    22544920.527    92317678.397  
  21714656.172   114111290.784    21714663.277    88917917.748  
  20758899.711   109088758.328                                  
  21176163.906   111281494.583    21176169.070    86712875.676  
 18  1 15 22 12  0.0000000  0 11G 2G29G 7G22G31G23G 6G 3G26G16G 9
  25107014.391   131938219.723                                  
  24864313.547   130662851.148    24864318.582   101815239.560  
  23876018.516   125469322.113    23876022.191    97768322.165  
  24061098.242   126441915.043                                  
  24887869.227   130786634.250    24887871.574   101911681.898  
  20338191.695   106877918.527                                  
  24330749.602   127858959.997    24330758.500    99630388.832  
  22545548.000   118477648.740    22545554.422    92320272.840  
  21714936.570   114112763.175    21714943.398    88919065.064  
  20758723.227   109087831.354                                  
  21175729.672   111279212.042    21175734.680    86711097.077  
 18  1 15 22 12  1.0000000  0 11G 2G29G 7G22G31G23G 6G 3G26G16G 9
  25107011.219   131938205.693                                  
  24864517.273   130663924.308    24864522.844   101816075.789  
  23875430.227   125466234.669    23875434.898    97765916.367  
  24061784.992   126445526.852                                  
  24888526.352   130790088.839    24888528.688   101914373.794  
  20338119.977   106877540.254                                  
  24331091.164   127860755.829    24331100.828    99631788.175  
  22546180.992   118480979.365    22546187.742    92322868.130  
  21715217.211   114114236.967    21715223.891    88920213.475  
  20758547.063   109086905.923                                  
  21175295.539   111276930.625    21175300.508    86709319.344  
 18  1 15 22 12  2.0000000  0 11G 2G29G 7G22G31G23G 6G 3G26G16G 9
  25107008.422   131938193.006                                  
  24864720.906   130664998.925    24864726.957   101816913.147  
  23874842.930   125463148.192    23874847.578    97763511.325  
  24062472.492   126449139.591                                  
  24889184.227   130793544.324    24889186.289   101917066.383  
  20338048.188   106877163.292                                  
  24331432.891   127862552.995    24331442.809    99633188.562  
  22546815.156   118484311.149    22546822.086    92325464.328  
  21715497.398   114115712.176    21715504.535    88921362.991  
  20758371.484   109085982.042                                  
  21174861.430   111274650.386    21174866.828    86707542.540  
 18  1 15 22 12  3.0000000  0 11G 2G29G 7G22G31G23G 6G 3G26G16G 9
  25107005.883   131938181.758                                  
  24864926.523   130666075.002    24864931.703   101817751.646  
  23874256.078   125460062.737    23874260.199    97761107.076  
  24063160.500   126452753.282                                  
  24889841.445   130797000.618    24889844.254   101919759.594  
  20337976.977   106876787.663                                  
  24331774.922   127864351.471    24331785.148    99634589.971  
  22547449.398   118487644.116    22547455.996    92328061.441  
  21715778.477   114117188.874    21715785.129    88922513.662  
  20758196.172   109085059.770                                  
  21174427.969   111272371.339    21174433.105    86705766.661  
 18  1 15 22 12  4.0000000  0 11G 2G29G 7G22G31G23G 6G 3G26G16G 9
  25107003.930   131938171.869                                  
  24865131.523   130667152.492    24865137.109   101818591.252  
  23873669.258   125456978.225    23873673.273    97758703.565  
  24063848.313   126456367.892                                  
  24890498.914   130800457.729    24890502.051   101922453.453  
  20337905.430   106876413.301                                  
  24332116.703   127866151.317    24332127.414    99635992.437  
  22548083.891   118490978.202    22548090.598    92330659.433  
  21716060.141   114118667.011    21716066.551    88923665.463  
  20758020.844   109084139.047                                  
  21173994.383   111270093.455    21173999.148    86703991.686  
 18  1 15 22 12  5.0000000  0 11G 2G29G 7G22G31G23G 6G 3G26G16G 9
  25107002.406   131938163.331                                  
  24865336.977   130668231.410    24865342.996   101819431.983  
  23873082.805   125453894.661    23873086.426    97756300.796  
  24064536.594   126459983.424                                  
  24891157.281   130803915.664    24891159.961   101925147.956  
  20337834.484   106876040.228                                  
  24332460.141   127867952.369    24332469.797    99637395.846  
  22548718.523   118494313.413    22548725.145    92333258.298  
  21716341.680   114120146.561    21716348.363    88924818.359  
  20757845.969   109083219.859                                  
  21173560.930   111267816.694    21173565.543    86702217.579  
 18  1 15 22 12  6.0000000  0 11G 2G29G 7G22G31G23G 6G 3G26G16G 9
  25107001.008   131938156.146                                  
  24865542.953   130669311.767    24865548.270   101820273.835  
  23872496.469   125450812.066    23872500.055    97753898.779  
  24065224.438   126463599.896                                  
  24891815.180   130807374.430    24891818.168   101927843.088  
  20337763.836   106875668.443                                  
  24332803.234   127869754.718    24332812.617    99638800.271  
  22549353.648   118497649.814    22549360.309    92335858.090  
  21716623.039   114121627.560    21716629.883    88925972.377  
  20757670.992   109082302.236                                  
  21173128.242   111265541.113    21173132.758    86700444.398  
 18  1 15 22 12  7.0000000  0 11G 2G29G 7G22G31G23G 6G 3G26G16G 9
  25106999.859   131938150.270                                  
  24865748.047   130670393.548    24865754.051   101821116.786  
  23871909.711   125447730.430    23871913.461    97751497.503  
  24065912.656   126467217.280                                  
  24892473.508   130810833.929    24892476.359   101930538.803  
  20337693.383   106875297.918                                  
  24333147.641   127871558.333    24333156.043    99640205.698  
  22549988.781   118500987.280    22549995.223    92338458.719  
  21716905.242   114123109.951    21716912.102    88927127.487  
  20757496.758   109081386.155                                  
  21172695.359   111263266.641    21172700.469    86698672.088  
 18  1 15 22 12  8.0000000  0 11G 2G29G 7G22G31G23G 6G 3G26G16G 9
  25106999.570   131938145.763                                  
  24865955.016   130671476.696    24865960.117   101821960.791  
  23871323.555   125444649.690    23871327.441    97749096.929  
  24066601.375   126470835.586                                  
  24893131.828   130814294.309    24893134.594   101933235.203  
  20337622.766   106874928.659                                  
  24333490.227   127873363.309    24333499.742    99641612.184  
  22550623.875   118504325.854    22550630.195    92341060.202  
  21717187.945   114124593.757    21717194.668    88928283.700  
  20757322.531   109080471.595                                  
  21172262.719   111260993.330    21172267.531    86696900.680  
 18  1 15 22 12  9.0000000  0 11G 2G29G 7G22G31G23G 6G 3G26G16G 9
  25106999.422   131938142.544                                  
  24866162.094   130672561.299    24866166.156   101822805.938  
  23870736.508   125441569.894    23870741.387    97746697.087  
  24067289.469   126474454.739                                  
  24893790.016   130817755.372    24893793.859   101935932.133  
  20337552.938   106874560.652                                  
  24333833.305   127875169.471    24333843.262    99643019.588  
  22551259.336   118507665.536    22551266.066    92343662.555  
  21717470.164   114126078.956    21717476.977    88929441.001  
  20757148.859   109079558.575                                  
  21171830.203   111258721.123    21171835.141    86695130.129  
 18  1 15 22 12 10.0000000  0 11G 2G29G 7G22G31G23G 6G 3G26G16G 9
  25106999.070   131938140.753                                  
  24866367.828   130673647.267    24866372.770   101823652.148  
  23870150.891   125438491.058    23870155.199    97744297.997  
  24067978.609   126478074.876                                  
  24894449.047   130821217.344    24894452.410   101938629.780  
  20337482.938   106874193.942                                  
  24334177.359   127876976.990    24334187.324    99644428.040  
  22551894.742   118511006.381    22551901.609    92346265.810  
  21717753.602   114127565.601    21717759.988    88930599.426  
  20756975.586   109078647.100                                  
  21171398.094   111256450.094    21171402.855    86693360.501  
 18  1 15 22 12 11.0000000  0 11G 2G29G 7G22G31G23G 6G 3G26G16G 9
  25106999.266   131938140.233                                  
  24866575.000   130674734.624    24866579.945   101824499.443  
  23869565.422   125435413.157    23869569.730    97741899.632  
  24068667.734   126481695.882                                  
  24895108.805   130824680.030    24895111.609   101941327.973  
  20337413.703   106873828.476                                  
  24334521.820   127878785.710    24334531.203    99645837.429  
  22552530.820   118514348.303    22552537.496    92348869.907  
  21718036.047   114129053.616    21718042.758    88931758.917  
  20756802.148   109077737.150                                  
  21170966.305   111254180.174    21170971.066    86691591.730  
 18  1 15 22 12 12.0000000  0 11G 2G29G 7G22G31G23G 6G 3G26G16G 9
  25106999.984   131938141.050                                  
  24866782.352   130675823.432    24866786.977   101825347.855  
  23868979.766   125432336.144    23868984.031    97739501.962  
  24069356.617   126485317.758                                  
  24895767.430   130828143.525    24895770.453   101944026.795  
  20337344.313   106873464.246                                  
  24334867.352   127880595.718    24334876.078    99647247.819  
  22553166.977   118517691.327    22553173.820    92351474.855  
  21718319.664   114130543.042    21718326.492    88932919.505  
  20756629.719   109076828.699                                  
  21170534.188   111251911.371    21170539.164    86689823.831  
 18  1 15 22 12 13.0000000  0 11G 2G29G 7G22G31G23G 6G 3G26G16G 9
  25106999.609   131938143.132                                  
  24866990.469   130676913.519    24866994.297   101826197.272  
  23868394.375   125429260.013    23868399.156    97737104.979  
  24070046.531   126488940.474                                  
  24896426.336   130831607.729    24896429.895   101946726.171  
  20337275.383   106873101.209                                  
  24335211.578   127882406.903    24335220.957    99648659.135  
  22553803.461   118521035.392    22553810.555    92354080.615  
  21718603.750   114132033.792    21718610.102    88934081.127  
  20756456.797   109075921.723                                  
  21170103.039   111249643.627    21170107.660    86688056.759  
 18  1 15 22 12 14.0000000  0 11G 2G29G 7G22G31G23G 6G 3G26G16G 9
  25107001.188   131938146.483                                  
  24867198.445   130678005.006    24867202.125   101827047.779  
  23867809.063   125426184.754    23867813.879    97734708.665  
  24070735.805   126492564.042                                  
  24897085.836   130835072.677    24897090.008   101949426.131  
  20337206.367   106872739.401                                  
  24335555.188   127884219.325    24335565.508    99650071.413  
  22554440.094   118524380.537    22554447.250    92356687.225  
  21718887.242   114133525.919    21718894.191    88935243.821  
  20756284.719   109075016.229                                  
  21169671.336   111247376.985    21169676.340    86686290.544  
 18  1 15 22 12 15.0000000  0 11G 2G29G 7G22G31G23G 6G 3G26G16G 9
  25107000.781   131938151.148                                  
  24867406.047   130679097.848    24867409.617   101827899.333  
  23867224.656   125423110.407    23867228.887    97732313.066  
  24071425.313   126496188.535                                  
  24897745.773   130838538.406    24897749.492   101952126.708  
  20337137.805   106872378.822                                  
  24335900.852   127886033.003    24335910.625    99651484.672  
  22555076.219   118527726.771    22555083.867    92359294.676  
  21719171.828   114135019.405    21719178.410    88936407.583  
  20756112.453   109074112.240                                  
  21169240.313   111245111.432    21169245.582    86684525.178  
 18  1 15 22 12 16.0000000  0 11G 2G29G 7G22G31G23G 6G 3G26G16G 9
  25107002.453   131938157.038                                  
  24867614.539   130680191.944    24867617.539   101828751.879  
  23866639.602   125420036.880    23866643.895    97729918.108  
  24072115.031   126499813.742                                  
  24898405.336   130842004.777    24898408.855   101954827.782  
  20337069.297   106872019.376                                  
  24336245.508   127887847.776    24336255.684    99652898.772  
  22555713.141   118531073.960    22555720.488    92361902.872  
  21719455.953   114136514.188    21719462.906    88937572.351  
  20755941.148   109073209.660                                  
  21168809.320   111242846.854    21168814.586    86682760.573  
 18  1 15 22 12 17.0000000  0 11G 2G29G 7G22G31G23G 6G 3G26G16G 9
  25107003.219   131938164.089                                  
  24867822.313   130681287.337    24867826.566   101829605.426  
  23866054.984   125416964.136    23866059.070    97727523.759  
  24072805.391   126503439.729                                  
  24899064.578   130845471.799    24899068.852   101957529.361  
  20337001.273   106871661.047                                  
  24336591.250   127889663.784    24336601.426    99654313.836  
  22556351.000   118534422.133    22556357.605    92364511.836  
  21719740.711   114138010.234    21719747.250    88938738.106  
  20755769.180   109072308.451                                  
  21168378.703   111240583.298    21168383.879    86680996.765  
 18  1 15 22 12 18.0000000  0 11G 2G29G 7G22G31G23G 6G 3G26G16G 9
  25107005.750   131938172.393                                  
  24868030.680   130682384.005    24868035.133   101830459.963  
  23865469.891   125413892.199    23865474.605    97725130.034  
  24073495.242   126507066.504                                  
  24899724.297   130848939.487    24899728.625   101960231.456  
  20336933.078   106871303.858                                  
  24336938.266   127891480.896    24336946.715    99655729.753  
  22556988.258   118537771.307    22556994.844    92367121.587  
  21720025.758   114139507.563    21720032.348    88939904.855  
  20755597.930   109071408.687                                  
  21167948.148   111238320.739    21167953.172    86679233.730  
 18  1 15 22 12 19.0000000  0 11G 2G29G 7G22G31G23G 6G 3G26G16G 9
  25107006.922   131938181.844                                  
  24868239.789   130683481.928    24868244.012   101831315.486  
  23864885.648   125410821.052    23864890.082    97722736.932  
  24074185.617   126510694.028                                  
  24900385.078   130852407.782    24900388.688   101962934.015  
  20336865.477   106870947.810                                  
  24337283.523   127893299.093    24337293.230    99657146.525  
  22557625.695   118541121.416    22557632.969    92369732.058  
  21720310.930   114141006.146    21720317.500    88941072.581  
  20755427.172   109070510.278                                  
  21167517.586   111236059.180    21167522.664    86677471.479  
 18  1 15 22 12 20.0000000  0 11G 2G29G 7G22G31G23G 6G 3G26G16G 9
  25107009.695   131938192.454                                  
  24868448.461   130684581.035    24868453.402   101832171.940  
  23864301.867   125407750.644    23864305.961    97720344.410  
  24074875.930   126514322.262                                  
  24901044.852   130855876.761    24901049.145   101965637.107  
  20336797.953   106870592.804                                  
  24337629.203   127895118.429    24337639.230    99658564.186  
  22558263.961   118544472.500    22558270.457    92372343.292  
  21720596.227   114142505.941    21720603.113    88942241.251  
  20755256.195   109069613.234                                  
  21167087.289   111233798.565    21167092.090    86675709.958  
 18  1 15 22 12 21.0000000  0 11G 2G29G 7G22G31G23G 6G 3G26G16G 9
  25107010.703   131938204.229                                  
  24868658.148   130685681.386    24868662.551   101833029.371  
  23863717.484   125404681.006    23863721.656    97717952.493  
  24075566.656   126517951.231                                  
  24901704.938   130859346.271    24901709.371   101968340.623  
  20336730.102   106870238.900                                  
  24337976.586   127896938.810    24337985.598    99659982.657  
  22558901.289   118547824.492    22558908.270    92374955.233  
  21720881.891   114144007.003    21720888.297    88943410.912  
  20755085.773   109068717.538                                  
  21166657.422   111231538.913    21166662.414    86673949.189  
 18  1 15 22 12 22.0000000  0 11G 2G29G 7G22G31G23G 6G 3G26G16G 9
  25107013.539   131938217.055                                  
  24868868.391   130686782.848    24868872.141   101833887.653  
  23863133.914   125401612.017    23863137.441    97715561.075  
  24076257.578   126521580.794                                  
  24902364.813   130862816.331    24902370.617   101971044.576  
  20336663.484   106869885.974                                  
  24338322.875   127898760.131    24338332.164    99661401.890  
  22559539.250   118551177.292    22559546.418    92377567.806  
  21721167.945   114145509.146    21721174.512    88944581.416  
  20754915.727   109067823.086                                  
  21166227.586   111229280.102    21166232.719    86672189.084  
 18  1 15 22 12 23.0000000  0 11G 2G29G 7G22G31G23G 6G 3G26G16G 9
  25107016.375   131938230.947                                  
  24869077.680   130687885.491    24869081.684   101834746.862  
  23862549.430   125398543.709    23862553.660    97713170.186  
  24076947.742   126525211.068                                  
  24903025.938   130866286.929    24903030.977   101973748.948  
  20336596.305   106869534.067                                  
  24338669.367   127900582.603    24338678.789    99662822.013  
  22560177.406   118554530.979    22560184.445    92380181.063  
  21721453.938   114147012.467    21721460.578    88945752.837  
  20754746.008   109066929.938                                  
  21165797.875   111227022.193    21165802.547    86670429.673  
 18  1 15 22 12 24.0000000  0 11G 2G29G 7G22G31G23G 6G 3G26G16G 9
  25107018.828   131938245.999                                  
  24869286.523   130688989.342    24869291.504   101835607.018  
  23861965.453   125395476.142    23861969.605    97710779.873  
  24077638.516   126528841.997                                  
  24903686.102   130869758.146    24903690.945   101976453.806  
  20336529.547   106869183.233                                  
  24339016.734   127902406.081    24339025.855    99664242.907  
  22560815.875   118557885.546    22560822.750    92382795.016  
  21721740.164   114148517.009    21721746.414    88946925.204  
  20754576.102   109066038.124                                  
  21165368.445   111224765.193    21165373.563    86668670.975  
 18  1 15 22 12 25.0000000  0 11G 2G29G 7G22G31G23G 6G 3G26G16G 9
  25107021.922   131938262.128                                  
  24869497.172   130690094.315    24869502.203   101836468.037  
  23861382.063   125392409.262    23861386.359    97708390.098  
  24078330.727   126532473.609                                  
  24904345.602   130873229.820    24904351.457   101979159.004  
  20336463.070   106868833.406                                  
  24339364.883   127904230.548    24339372.871    99665664.578  
  22561455.023   118561241.008    22561461.453    92385409.667  
  21722026.453   114150022.698    21722033.555    88948098.472  
  20754406.547   109065147.584                                  
  21164938.992   111222509.103    21164944.121    86666912.985  
 18  1 15 22 12 26.0000000  0 11G 2G29G 7G22G31G23G 6G 3G26G16G 9
  25107026.211   131938279.442                                  
  24869707.688   130691200.530    24869712.605   101837330.020  
  23860798.570   125389343.126    23860802.555    97706000.903  
  24079022.055   126536105.914                                  
  24905006.273   130876702.213    24905012.043   101981864.759  
  20336396.594   106868484.644                                  
  24339711.797   127906056.140    24339720.336    99667087.115  
  22562093.320   118564597.398    22562099.793    92388025.033  
  21722313.297   114151529.595    21722319.914    88949272.679  
  20754237.445   109064258.399                                  
  21164509.758   111220253.927    21164514.594    86665155.704  
 18  1 15 22 12 27.0000000  0 11G 2G29G 7G22G31G23G 6G 3G26G16G 9
  25107029.234   131938297.801                                  
  24869919.766   130692307.863    24869923.496   101838192.885  
  23860215.391   125386277.634    23860219.113    97703612.208  
  24079713.086   126539738.885                                  
  24905667.484   130880175.095    24905672.883   101984570.899  
  20336330.648   106868136.895                                  
  24340059.797   127907882.720    24340068.219    99668510.424  
  22562732.016   118567954.619    22562738.512    92390641.048  
  21722600.398   114153037.652    21722607.230    88950447.786  
  20754068.234   109063370.475                                  
  21164080.828   111217999.668    21164086.117    86663399.138  
 18  1 15 22 12 28.0000000  0 11G 2G29G 7G22G31G23G 6G 3G26G16G 9
  25107032.531   131938317.299                                  
  24870129.813   130693416.422    24870134.785   101839056.705  
  23859632.148   125383212.933    23859636.648    97701224.132  
  24080404.438   126543372.539                                  
  24906328.852   130883648.589    24906333.504   101987277.515  
  20336264.273   106867790.219                                  
  24340406.797   127909710.372    24340415.957    99669934.567  
  22563371.211   118571312.763    22563377.789    92393257.777  
  21722887.500   114154546.934    21722893.949    88951623.849  
  20753899.539   109062483.898                                  
  21163652.148   111215746.312    21163657.688    86661643.278  
 18  1 15 22 12 29.0000000  0 11G 2G29G 7G22G31G23G 6G 3G26G16G 9
  25107036.680   131938337.857                                  
  24870340.875   130694526.156    24870345.898   101839921.447  
  23859048.906   125380148.871    23859053.398    97698836.554  
  24081096.461   126547006.839                                  
  24906990.805   130887122.550    24906994.480   101989984.496  
  20336198.625   106867444.533                                  
  24340754.547   127911539.062    24340764.211    99671359.515  
  22564009.984   118574671.759    22564016.938    92395875.175  
  21723175.070   114156057.310    21723182.156    88952800.761  
  20753731.367   109061598.589                                  
  21163223.461   111213493.835    21163229.086    86659888.099  
 18  1 15 22 12 30.0000000  0 11G 2G29G 7G22G31G23G 6G 3G26G16G 9
  25107040.727   131938359.483                                  
  24870552.961   130695637.015    24870557.258   101840787.058  
  23858465.773   125377085.499    23858470.566    97696449.517  
  24081787.977   126550641.777                                  
  24907651.406   130890597.075    24907655.742   101992691.918  
  20336133.266   106867099.854                                  
  24341103.023   127913368.729    24341111.664    99672785.224  
  22564649.148   118578031.606    22564656.258    92398493.238  
  21723462.602   114157568.878    21723469.406    88953978.604  
  20753562.961   109060714.553                                  
  21162795.109   111211242.228    21162800.316    86658133.603  
 18  1 15 22 12 31.0000000  0 11G 2G29G 7G22G31G23G 6G 3G26G16G 9
  25107044.922   131938382.153                                  
  24870764.055   130696748.910    24870768.355   101841653.475  
  23857883.156   125374022.724    23857887.648    97694062.940  
  24082480.500   126554277.300                                  
  24908312.883   130894072.071    24908316.715   101995399.706  
  20336067.602   106866756.121                                  
  24341451.453   127915199.345    24341460.367    99674211.668  
  22565288.633   118581392.237    22565295.879    92401111.910  
  21723750.641   114159081.519    21723757.117    88955157.288  
  20753395.133   109059831.731                                  
  21162366.672   111208991.449    21162371.961    86656379.748  
 18  1 15 22 12 32.0000000  0 11G 2G29G 7G22G31G23G 6G 3G26G16G 9
  25107049.539   131938405.808                                  
  24870976.133   130697861.898    24870980.359   101842520.732  
  23857300.219   125370960.570    23857304.898    97691676.850  
  24083172.109   126557913.408                                  
  24908974.766   130897547.544    24908977.820   101998107.863  
  20336002.453   106866413.341                                  
  24341799.656   127917030.995    24341809.121    99675638.929  
  22565928.063   118584753.659    22565935.945    92403731.202  
  21724038.297   114160595.240    21724045.559    88956336.808  
  20753227.469   109058950.124                                  
  21161938.625   111206741.460    21161944.203    86654626.513  
 18  1 15 22 12 33.0000000  0 11G 2G29G 7G22G31G23G 6G 3G26G16G 9
  25107053.539   131938430.454                                  
  24871188.313   130698975.993    24871192.078   101843388.840  
  23856717.633   125367899.010    23856722.207    97689291.213  
  24083864.766   126561550.057                                  
  24909636.516   130901023.429    24909639.230   102000816.347  
  20335937.484   106866071.456                                  
  24342147.844   127918863.475    24342158.000    99677066.839  
  22566568.430   118588115.847    22566575.855    92406351.091  
  21724326.438   114162110.006    21724333.766    88957517.147  
  20753059.766   109058069.694                                  
  21161510.734   111204492.269    21161516.184    86652873.896  
 18  1 15 22 12 34.0000000  0 11G 2G29G 7G22G31G23G 6G 3G26G16G 9
  25107058.648   131938456.137                                  
  24871400.961   130700091.151    24871405.168   101844257.784  
  23856135.313   125364838.115    23856139.320    97686906.102  
  24084556.438   126565187.346                                  
  24910297.297   130904499.822    24910300.582   102003525.227  
  20335872.234   106865730.568                                  
  24342497.180   127920696.964    24342506.461    99678495.539  
  22567208.414   118591478.873    22567215.273    92408971.633  
  21724615.008   114163625.925    21724621.883    88958698.381  
  20752892.250   109057190.524                                  
  21161082.477   111202243.934    21161088.176    86651121.949  
 18  1 15 22 12 35.0000000  0 11G 2G29G 7G22G31G23G 6G 3G26G16G 9
  25107063.820   131938482.844                                  
  24871613.102   130701207.430    24871617.695   101845127.603  
  23855553.313   125361777.816    23855557.348    97684521.456  
  24085248.477   126568825.205                                  
  24910959.352   130907976.719    24910962.520   102006234.497  
  20335808.031   106865390.620                                  
  24342845.633   127922531.421    24342856.289    99679924.986  
  22567848.367   118594842.660    22567855.551    92411592.761  
  21724903.953   114165142.902    21724910.641    88959880.447  
  20752725.461   109056312.553                                  
  21160654.781   111199996.410    21160660.469    86649370.635  
 18  1 15 22 12 36.0000000  0 11G 2G29G 7G22G31G23G 6G 3G26G16G 9
  25107069.797   131938510.518                                  
  24871824.992   130702324.721    24871830.113   101845998.221  
  23854971.008   125358718.073    23854975.012    97682137.234  
  24085940.773   126572463.596                                  
  24911620.703   130911453.986    24911624.301   102008944.055  
  20335743.477   106865051.573                                  
  24343195.727   127924366.773    24343204.926    99681355.125  
  22568488.469   118598207.209    22568495.582    92414214.486  
  21725192.570   114166660.932    21725199.500    88961063.320  
  20752558.516   109055435.774                                  
  21160227.680   111197749.648    21160233.047    86647619.910  
 18  1 15 22 12 37.0000000  0 11G 2G29G 7G22G31G23G 6G 3G26G16G 9
  25107074.711   131938539.184                                  
  24872038.813   130703443.076    24872042.238   101846869.669  
  23854388.680   125355658.930    23854392.875    97679753.486  
  24086633.438   126576102.524                                  
  24912283.148   130914931.740    24912285.750   102011653.989  
  20335679.031   106864713.421                                  
  24343545.742   127926203.030    24343554.480    99682785.973  
  22569129.180   118601572.498    22569136.090    92416836.782  
  21725481.719   114168180.023    21725488.391    88962247.034  
  20752392.016   109054560.143                                  
  21159800.047   111195503.674    21159805.121    86645869.796  
 18  1 15 22 12 38.0000000  0 11G 2G29G 7G22G31G23G 6G 3G26G16G 9
  25107080.273   131938568.836                                  
  24872251.531   130704562.471    24872255.527   101847741.921  
  23853806.055   125352600.353    23853810.707    97677370.179  
  24087325.938   126579742.038                                  
  24912944.305   130918409.906    24912947.723   102014364.237  
  20335614.789   106864376.199                                  
  24343894.859   127928040.207    24343904.262    99684217.530  
  22569768.953   118604938.547    22569776.438    92419459.673  
  21725771.141   114169700.153    21725777.742    88963431.553  
  20752225.758   109053685.711                                  
  21159373.242   111193258.491    21159378.129    86644120.300  
 18  1 15 22 12 39.0000000  0 11G 2G29G 7G22G31G23G 6G 3G26G16G 9
  25107085.656   131938599.480                                  
  24872464.766   130705682.946    24872468.883   101848615.021  
  23853224.688   125349542.401    23853229.355    97674987.358  
  24088018.656   126583382.083                                  
  24913606.656   130921888.521    24913609.227   102017074.846  
  20335550.758   106864039.909                                  
  24344244.531   127929878.350    24344253.949    99685649.855  
  22570410.094   118608305.396    22570417.180    92422083.190  
  21726060.805   114171221.362    21726067.449    88964616.906  
  20752059.266   109052812.479                                  
  21158945.781   111191014.083    21158950.914    86642371.415  
 18  1 15 22 12 40.0000000  0 11G 2G29G 7G22G31G23G 6G 3G26G16G 9
  25107091.563   131938631.127                                  
  24872677.328   130706804.467    24872682.273   101849488.934  
  23852643.063   125346485.023    23852647.426    97672604.981  
  24088710.609   126587022.714                                  
  24914269.258   130925367.550    24914271.535   102019785.773  
  20335487.188   106863704.527                                  
  24344594.008   127931717.325    24344604.125    99687082.839  
  22571051.414   118611673.020    22571057.941    92424707.313  
  21726350.406   114172743.621    21726356.996    88965803.084  
  20751893.281   109051940.431                                  
  21158518.891   111188770.472    21158523.680    86640623.148  
 18  1 15 22 12 41.0000000  0 11G 2G29G 7G22G31G23G 6G 3G26G16G 9
  25107097.680   131938663.789                                  
  24872890.594   130707927.108    24872895.535   101850363.723  
  23852061.797   125343428.269    23852065.512    97670223.092  
  24089403.633   126590663.892                                  
  24914931.500   130928847.118    24914933.625   102022497.127  
  20335423.336   106863370.107                                  
  24344943.742   127933557.340    24344954.090    99688516.622  
  22571692.594   118615041.389    22571699.160    92427332.010  
  21726640.078   114174266.984    21726646.613    88966990.115  
  20751727.563   109051069.604                                  
  21158092.078   111186527.695    21158097.566    86638875.531  
 18  1 15 22 12 42.0000000  0 11G 2G29G 7G22G31G23G 6G 3G26G16G 9
  25107103.719   131938697.443                                  
  24873104.867   130709050.775    24873109.340   101851239.303  
  23851479.547   125340372.120    23851483.832    97667841.676  
  24090096.680   126594305.684                                  
  24915594.016   130932327.105    24915595.461   102025208.811  
  20335359.984   106863036.626                                  
  24345294.898   127935398.285    24345304.793    99689951.116  
  22572333.313   118618410.560    22572340.031    92429957.340  
  21726930.445   114175791.403    21726936.855    88968177.971  
  20751562.000   109050199.979                                  
  21157665.633   111184285.700    21157670.723    86637128.523  
 18  1 15 22 12 43.0000000  0 11G 2G29G 7G22G31G23G 6G 3G26G16G 9
  25107110.258   131938732.080                                  
  24873318.477   130710175.522    24873323.422   101852115.725  
  23850897.734   125337316.564    23850902.848    97665460.723  
  24090789.531   126597948.010                                  
  24916255.711   130935807.546    24916258.234   102027920.849  
  20335296.711   106862704.032                                  
  24345644.813   127937240.143    24345654.578    99691386.319  
  22572974.344   118621780.488    22572981.680    92432583.254  
  21727220.531   114177316.891    21727227.211    88969366.664  
  20751397.063   109049331.544                                  
  21157239.313   111182044.503    21157244.293    86635382.135  
 18  1 15 22 12 44.0000000  0 11G 2G29G 7G22G31G23G 6G 3G26G16G 9
  25107116.703   131938767.714                                  
  24873533.680   130711301.317    24873537.617   101852992.962  
  23850316.922   125334261.634    23850321.352    97663080.264  
  24091482.617   126601590.917                                  
  24916917.328   130939288.460    24916920.629   102030633.251  
  20335233.344   106862372.398                                  
  24345996.352   127939082.963    24346005.816    99692822.264  
  22573615.766   118625151.208    22573623.398    92435209.783  
  21727510.844   114178843.458    21727518.195    88970556.197  
  20751231.789   109048464.302                                  
  21156812.789   111179804.103    21156817.754    86633636.372  
 18  1 15 22 12 45.0000000  0 11G 2G29G 7G22G31G23G 6G 3G26G16G 9
  25107124.500   131938804.394                                  
  24873747.680   130712428.240    24873751.652   101853871.092  
  23849735.406   125331207.296    23849740.371    97660700.256  
  24092176.000   126605234.401                                  
  24917580.961   130942769.858    24917583.020   102033346.025  
  20335170.625   106862041.719                                  
  24346347.641   127940926.721    24346356.402    99694258.948  
  22574257.578   118628522.714    22574264.340    92437836.932  
  21727801.844   114180371.118    21727808.715    88971746.578  
  20751066.750   109047598.304                                  
  21156386.266   111177564.552    21156391.422    86631891.265  
